{"source":"US Census Bureau Gazetteer 2023","generated":true,"counties":{"01001":{"state":"AL","name":"Autauga County","normalized":"autauga","lat":32.5322,"lon":-86.6464},"01003":{"state":"AL","name":"Baldwin County","normalized":"baldwin","lat":30.6592,"lon":-87.7461},"01005":{"state":"AL","name":"Barbour County","normalized":"barbour","lat":31.8703,"lon":-85.4051},"01007":{"state":"AL","name":"Bibb County","normalized":"bibb","lat":33.0159,"lon":-87.1271},"01009":{"state":"AL","name":"Blount County","normalized":"blount","lat":33.9774,"lon":-86.5664},"01011":{"state":"AL","name":"Bullock County","normalized":"bullock","lat":32.1018,"lon":-85.7173},"01013":{"state":"AL","name":"Butler County","normalized":"butler","lat":31.7517,"lon":-86.682},"01015":{"state":"AL","name":"Calhoun County","normalized":"calhoun","lat":33.7705,"lon":-85.8279},"01017":{"state":"AL","name":"Chambers County","normalized":"chambers","lat":32.9155,"lon":-85.394},"01019":{"state":"AL","name":"Cherokee County","normalized":"cherokee","lat":34.0695,"lon":-85.6542},"01021":{"state":"AL","name":"Chilton County","normalized":"chilton","lat":32.8541,"lon":-86.7266},"01023":{"state":"AL","name":"Choctaw County","normalized":"choctaw","lat":31.991,"lon":-88.2489},"01025":{"state":"AL","name":"Clarke County","normalized":"clarke","lat":31.6855,"lon":-87.8186},"01027":{"state":"AL","name":"Clay County","normalized":"clay","lat":33.2704,"lon":-85.8635},"01029":{"state":"AL","name":"Cleburne County","normalized":"cleburne","lat":33.672,"lon":-85.5161},"01031":{"state":"AL","name":"Coffee County","normalized":"coffee","lat":31.4023,"lon":-85.9896},"01033":{"state":"AL","name":"Colbert County","normalized":"colbert","lat":34.7031,"lon":-87.8015},"01035":{"state":"AL","name":"Conecuh County","normalized":"conecuh","lat":31.4309,"lon":-86.9887},"01037":{"state":"AL","name":"Coosa County","normalized":"coosa","lat":32.9314,"lon":-86.2435},"01039":{"state":"AL","name":"Covington County","normalized":"covington","lat":31.244,"lon":-86.4487},"01041":{"state":"AL","name":"Crenshaw County","normalized":"crenshaw","lat":31.7303,"lon":-86.32},"01043":{"state":"AL","name":"Cullman County","normalized":"cullman","lat":34.1319,"lon":-86.8693},"01045":{"state":"AL","name":"Dale County","normalized":"dale","lat":31.4307,"lon":-85.6095},"01047":{"state":"AL","name":"Dallas County","normalized":"dallas","lat":32.3335,"lon":-87.1144},"01049":{"state":"AL","name":"DeKalb County","normalized":"dekalb","lat":34.4609,"lon":-85.804},"01051":{"state":"AL","name":"Elmore County","normalized":"elmore","lat":32.5972,"lon":-86.1427},"01053":{"state":"AL","name":"Escambia County","normalized":"escambia","lat":31.1223,"lon":-87.1684},"01055":{"state":"AL","name":"Etowah County","normalized":"etowah","lat":34.0476,"lon":-86.0343},"01057":{"state":"AL","name":"Fayette County","normalized":"fayette","lat":33.7162,"lon":-87.7643},"01059":{"state":"AL","name":"Franklin County","normalized":"franklin","lat":34.442,"lon":-87.8428},"01061":{"state":"AL","name":"Geneva County","normalized":"geneva","lat":31.0924,"lon":-85.821},"01063":{"state":"AL","name":"Greene County","normalized":"greene","lat":32.8445,"lon":-87.9642},"01065":{"state":"AL","name":"Hale County","normalized":"hale","lat":32.7528,"lon":-87.6231},"01067":{"state":"AL","name":"Henry County","normalized":"henry","lat":31.517,"lon":-85.24},"01069":{"state":"AL","name":"Houston County","normalized":"houston","lat":31.1582,"lon":-85.2964},"01071":{"state":"AL","name":"Jackson County","normalized":"jackson","lat":34.7641,"lon":-85.9801},"01073":{"state":"AL","name":"Jefferson County","normalized":"jefferson","lat":33.5534,"lon":-86.8965},"01075":{"state":"AL","name":"Lamar County","normalized":"lamar","lat":33.7871,"lon":-88.0874},"01077":{"state":"AL","name":"Lauderdale County","normalized":"lauderdale","lat":34.9042,"lon":-87.6511},"01079":{"state":"AL","name":"Lawrence County","normalized":"lawrence","lat":34.5298,"lon":-87.3219},"01081":{"state":"AL","name":"Lee County","normalized":"lee","lat":32.6041,"lon":-85.353},"01083":{"state":"AL","name":"Limestone County","normalized":"limestone","lat":34.8102,"lon":-86.9814},"01085":{"state":"AL","name":"Lowndes County","normalized":"lowndes","lat":32.1479,"lon":-86.6506},"01087":{"state":"AL","name":"Macon County","normalized":"macon","lat":32.387,"lon":-85.6929},"01089":{"state":"AL","name":"Madison County","normalized":"madison","lat":34.7642,"lon":-86.5511},"01091":{"state":"AL","name":"Marengo County","normalized":"marengo","lat":32.2476,"lon":-87.7911},"01093":{"state":"AL","name":"Marion County","normalized":"marion","lat":34.1382,"lon":-87.8816},"01095":{"state":"AL","name":"Marshall County","normalized":"marshall","lat":34.3096,"lon":-86.3217},"01097":{"state":"AL","name":"Mobile County","normalized":"mobile","lat":30.6846,"lon":-88.1966},"01099":{"state":"AL","name":"Monroe County","normalized":"monroe","lat":31.5804,"lon":-87.3833},"01101":{"state":"AL","name":"Montgomery County","normalized":"montgomery","lat":32.2029,"lon":-86.2045},"01103":{"state":"AL","name":"Morgan County","normalized":"morgan","lat":34.4545,"lon":-86.8464},"01105":{"state":"AL","name":"Perry County","normalized":"perry","lat":32.639,"lon":-87.2938},"01107":{"state":"AL","name":"Pickens County","normalized":"pickens","lat":33.2968,"lon":-88.0969},"01109":{"state":"AL","name":"Pike County","normalized":"pike","lat":31.7987,"lon":-85.9416},"01111":{"state":"AL","name":"Randolph County","normalized":"randolph","lat":33.2965,"lon":-85.4641},"01113":{"state":"AL","name":"Russell County","normalized":"russell","lat":32.2898,"lon":-85.187},"01115":{"state":"AL","name":"St. Clair County","normalized":"st. clair","lat":33.7195,"lon":-86.3113},"01117":{"state":"AL","name":"Shelby County","normalized":"shelby","lat":33.2669,"lon":-86.661},"01119":{"state":"AL","name":"Sumter County","normalized":"sumter","lat":32.5975,"lon":-88.2001},"01121":{"state":"AL","name":"Talladega County","normalized":"talladega","lat":33.3693,"lon":-86.1759},"01123":{"state":"AL","name":"Tallapoosa County","normalized":"tallapoosa","lat":32.8633,"lon":-85.7996},"01125":{"state":"AL","name":"Tuscaloosa County","normalized":"tuscaloosa","lat":33.2902,"lon":-87.5228},"01127":{"state":"AL","name":"Walker County","normalized":"walker","lat":33.7916,"lon":-87.3011},"01129":{"state":"AL","name":"Washington County","normalized":"washington","lat":31.4085,"lon":-88.2124},"01131":{"state":"AL","name":"Wilcox County","normalized":"wilcox","lat":31.9901,"lon":-87.3049},"01133":{"state":"AL","name":"Winston County","normalized":"winston","lat":34.1546,"lon":-87.3653},"02013":{"state":"AK","name":"Aleutians East Borough","normalized":"aleutians east","lat":55.245,"lon":-161.9975},"02016":{"state":"AK","name":"Aleutians West Census Area","normalized":"aleutians west","lat":51.949,"lon":179.6212},"02020":{"state":"AK","name":"Anchorage Municipality","normalized":"anchorage","lat":61.1743,"lon":-149.2843},"02050":{"state":"AK","name":"Bethel Census Area","normalized":"bethel","lat":60.9291,"lon":-160.1526},"02060":{"state":"AK","name":"Bristol Bay Borough","normalized":"bristol bay","lat":58.7417,"lon":-156.9668},"02063":{"state":"AK","name":"Chugach Census Area","normalized":"chugach","lat":60.4885,"lon":-146.2031},"02066":{"state":"AK","name":"Copper River Census Area","normalized":"copper river","lat":62.0345,"lon":-143.9222},"02068":{"state":"AK","name":"Denali Borough","normalized":"denali","lat":63.682,"lon":-150.027},"02070":{"state":"AK","name":"Dillingham Census Area","normalized":"dillingham","lat":59.5433,"lon":-158.2671},"02090":{"state":"AK","name":"Fairbanks North Star Borough","normalized":"fairbanks north star","lat":64.6705,"lon":-146.4961},"02100":{"state":"AK","name":"Haines Borough","normalized":"haines","lat":59.0984,"lon":-135.5758},"02105":{"state":"AK","name":"Hoonah-Angoon Census Area","normalized":"hoonah-angoon","lat":58.4033,"lon":-135.8849},"02110":{"state":"AK","name":"Juneau City and Borough","normalized":"juneau city and","lat":58.3729,"lon":-134.1784},"02122":{"state":"AK","name":"Kenai Peninsula Borough","normalized":"kenai peninsula","lat":60.3667,"lon":-152.3223},"02130":{"state":"AK","name":"Ketchikan Gateway Borough","normalized":"ketchikan gateway","lat":55.4499,"lon":-131.1067},"02150":{"state":"AK","name":"Kodiak Island Borough","normalized":"kodiak island","lat":57.7044,"lon":-153.9184},"02158":{"state":"AK","name":"Kusilvak Census Area","normalized":"kusilvak","lat":62.2836,"lon":-163.1902},"02164":{"state":"AK","name":"Lake and Peninsula Borough","normalized":"lake and peninsula","lat":58.1085,"lon":-156.4134},"02170":{"state":"AK","name":"Matanuska-Susitna Borough","normalized":"matanuska-susitna","lat":62.2656,"lon":-149.504},"02180":{"state":"AK","name":"Nome Census Area","normalized":"nome","lat":64.7837,"lon":-164.1889},"02185":{"state":"AK","name":"North Slope Borough","normalized":"north slope","lat":69.4493,"lon":-153.4728},"02188":{"state":"AK","name":"Northwest Arctic Borough","normalized":"northwest arctic","lat":67.0051,"lon":-160.0211},"02195":{"state":"AK","name":"Petersburg Borough","normalized":"petersburg","lat":57.1125,"lon":-133.0086},"02198":{"state":"AK","name":"Prince of Wales-Hyder Census Area","normalized":"prince of wales-hyder","lat":55.6828,"lon":-133.1624},"02220":{"state":"AK","name":"Sitka City and Borough","normalized":"sitka city and","lat":57.1932,"lon":-135.3674},"02230":{"state":"AK","name":"Skagway Municipality","normalized":"skagway","lat":59.5604,"lon":-135.3383},"02240":{"state":"AK","name":"Southeast Fairbanks Census Area","normalized":"southeast fairbanks","lat":63.865,"lon":-143.2186},"02275":{"state":"AK","name":"Wrangell City and Borough","normalized":"wrangell city and","lat":56.1808,"lon":-132.0268},"02282":{"state":"AK","name":"Yakutat City and Borough","normalized":"yakutat city and","lat":60.0175,"lon":-140.4168},"02290":{"state":"AK","name":"Yukon-Koyukuk Census Area","normalized":"yukon-koyukuk","lat":65.3757,"lon":-151.5779},"04001":{"state":"AZ","name":"Apache County","normalized":"apache","lat":35.3851,"lon":-109.4902},"04003":{"state":"AZ","name":"Cochise County","normalized":"cochise","lat":31.8401,"lon":-109.7752},"04005":{"state":"AZ","name":"Coconino County","normalized":"coconino","lat":35.8297,"lon":-111.7737},"04007":{"state":"AZ","name":"Gila County","normalized":"gila","lat":33.7896,"lon":-110.8119},"04009":{"state":"AZ","name":"Graham County","normalized":"graham","lat":32.9318,"lon":-109.8783},"04011":{"state":"AZ","name":"Greenlee County","normalized":"greenlee","lat":33.2389,"lon":-109.2423},"04012":{"state":"AZ","name":"La Paz County","normalized":"la paz","lat":33.7276,"lon":-114.0388},"04013":{"state":"AZ","name":"Maricopa County","normalized":"maricopa","lat":33.3452,"lon":-112.4989},"04015":{"state":"AZ","name":"Mohave County","normalized":"mohave","lat":35.7177,"lon":-113.7497},"04017":{"state":"AZ","name":"Navajo County","normalized":"navajo","lat":35.3908,"lon":-110.321},"04019":{"state":"AZ","name":"Pima County","normalized":"pima","lat":32.128,"lon":-111.7837},"04021":{"state":"AZ","name":"Pinal County","normalized":"pinal","lat":32.9185,"lon":-111.3663},"04023":{"state":"AZ","name":"Santa Cruz County","normalized":"santa cruz","lat":31.5257,"lon":-110.8452},"04025":{"state":"AZ","name":"Yavapai County","normalized":"yavapai","lat":34.6311,"lon":-112.5772},"04027":{"state":"AZ","name":"Yuma County","normalized":"yuma","lat":32.7739,"lon":-113.9109},"05001":{"state":"AR","name":"Arkansas County","normalized":"arkansas","lat":34.2896,"lon":-91.3765},"05003":{"state":"AR","name":"Ashley County","normalized":"ashley","lat":33.1908,"lon":-91.7723},"05005":{"state":"AR","name":"Baxter County","normalized":"baxter","lat":36.2803,"lon":-92.3299},"05007":{"state":"AR","name":"Benton County","normalized":"benton","lat":36.3378,"lon":-94.2563},"05009":{"state":"AR","name":"Boone County","normalized":"boone","lat":36.3043,"lon":-93.0792},"05011":{"state":"AR","name":"Bradley County","normalized":"bradley","lat":33.4665,"lon":-92.1692},"05013":{"state":"AR","name":"Calhoun County","normalized":"calhoun","lat":33.5605,"lon":-92.5139},"05015":{"state":"AR","name":"Carroll County","normalized":"carroll","lat":36.3374,"lon":-93.541},"05017":{"state":"AR","name":"Chicot County","normalized":"chicot","lat":33.2671,"lon":-91.2972},"05019":{"state":"AR","name":"Clark County","normalized":"clark","lat":34.0533,"lon":-93.1762},"05021":{"state":"AR","name":"Clay County","normalized":"clay","lat":36.3673,"lon":-90.4187},"05023":{"state":"AR","name":"Cleburne County","normalized":"cleburne","lat":35.5936,"lon":-92.0089},"05025":{"state":"AR","name":"Cleveland County","normalized":"cleveland","lat":33.8932,"lon":-92.1887},"05027":{"state":"AR","name":"Columbia County","normalized":"columbia","lat":33.223,"lon":-93.2328},"05029":{"state":"AR","name":"Conway County","normalized":"conway","lat":35.2657,"lon":-92.6892},"05031":{"state":"AR","name":"Craighead County","normalized":"craighead","lat":35.8277,"lon":-90.6314},"05033":{"state":"AR","name":"Crawford County","normalized":"crawford","lat":35.583,"lon":-94.2362},"05035":{"state":"AR","name":"Crittenden County","normalized":"crittenden","lat":35.1976,"lon":-90.3051},"05037":{"state":"AR","name":"Cross County","normalized":"cross","lat":35.2857,"lon":-90.764},"05039":{"state":"AR","name":"Dallas County","normalized":"dallas","lat":33.9678,"lon":-92.654},"05041":{"state":"AR","name":"Desha County","normalized":"desha","lat":33.8288,"lon":-91.2441},"05043":{"state":"AR","name":"Drew County","normalized":"drew","lat":33.5872,"lon":-91.7228},"05045":{"state":"AR","name":"Faulkner County","normalized":"faulkner","lat":35.1465,"lon":-92.3369},"05047":{"state":"AR","name":"Franklin County","normalized":"franklin","lat":35.5086,"lon":-93.8877},"05049":{"state":"AR","name":"Fulton County","normalized":"fulton","lat":36.3813,"lon":-91.8193},"05051":{"state":"AR","name":"Garland County","normalized":"garland","lat":34.5789,"lon":-93.1469},"05053":{"state":"AR","name":"Grant County","normalized":"grant","lat":34.2856,"lon":-92.423},"05055":{"state":"AR","name":"Greene County","normalized":"greene","lat":36.1206,"lon":-90.5663},"05057":{"state":"AR","name":"Hempstead County","normalized":"hempstead","lat":33.736,"lon":-93.6644},"05059":{"state":"AR","name":"Hot Spring County","normalized":"hot spring","lat":34.3152,"lon":-92.9441},"05061":{"state":"AR","name":"Howard County","normalized":"howard","lat":34.0831,"lon":-93.9909},"05063":{"state":"AR","name":"Independence County","normalized":"independence","lat":35.7375,"lon":-91.5599},"05065":{"state":"AR","name":"Izard County","normalized":"izard","lat":36.0949,"lon":-91.9136},"05067":{"state":"AR","name":"Jackson County","normalized":"jackson","lat":35.5965,"lon":-91.2232},"05069":{"state":"AR","name":"Jefferson County","normalized":"jefferson","lat":34.2772,"lon":-91.9297},"05071":{"state":"AR","name":"Johnson County","normalized":"johnson","lat":35.5734,"lon":-93.4663},"05073":{"state":"AR","name":"Lafayette County","normalized":"lafayette","lat":33.2406,"lon":-93.6115},"05075":{"state":"AR","name":"Lawrence County","normalized":"lawrence","lat":36.0411,"lon":-91.1012},"05077":{"state":"AR","name":"Lee County","normalized":"lee","lat":34.7795,"lon":-90.7797},"05079":{"state":"AR","name":"Lincoln County","normalized":"lincoln","lat":33.9564,"lon":-91.7424},"05081":{"state":"AR","name":"Little River County","normalized":"little river","lat":33.7019,"lon":-94.2363},"05083":{"state":"AR","name":"Logan County","normalized":"logan","lat":35.2187,"lon":-93.7209},"05085":{"state":"AR","name":"Lonoke County","normalized":"lonoke","lat":34.7551,"lon":-91.8941},"05087":{"state":"AR","name":"Madison County","normalized":"madison","lat":36.0125,"lon":-93.7241},"05089":{"state":"AR","name":"Marion County","normalized":"marion","lat":36.2667,"lon":-92.6786},"05091":{"state":"AR","name":"Miller County","normalized":"miller","lat":33.3055,"lon":-93.9015},"05093":{"state":"AR","name":"Mississippi County","normalized":"mississippi","lat":35.7669,"lon":-90.0522},"05095":{"state":"AR","name":"Monroe County","normalized":"monroe","lat":34.6795,"lon":-91.2033},"05097":{"state":"AR","name":"Montgomery County","normalized":"montgomery","lat":34.5457,"lon":-93.6642},"05099":{"state":"AR","name":"Nevada County","normalized":"nevada","lat":33.6667,"lon":-93.3051},"05101":{"state":"AR","name":"Newton County","normalized":"newton","lat":35.9107,"lon":-93.2159},"05103":{"state":"AR","name":"Ouachita County","normalized":"ouachita","lat":33.5912,"lon":-92.8784},"05105":{"state":"AR","name":"Perry County","normalized":"perry","lat":34.9464,"lon":-92.9269},"05107":{"state":"AR","name":"Phillips County","normalized":"phillips","lat":34.4237,"lon":-90.8556},"05109":{"state":"AR","name":"Pike County","normalized":"pike","lat":34.1582,"lon":-93.6587},"05111":{"state":"AR","name":"Poinsett County","normalized":"poinsett","lat":35.5689,"lon":-90.6811},"05113":{"state":"AR","name":"Polk County","normalized":"polk","lat":34.491,"lon":-94.2309},"05115":{"state":"AR","name":"Pope County","normalized":"pope","lat":35.4566,"lon":-93.0268},"05117":{"state":"AR","name":"Prairie County","normalized":"prairie","lat":34.8311,"lon":-91.5536},"05119":{"state":"AR","name":"Pulaski County","normalized":"pulaski","lat":34.7703,"lon":-92.313},"05121":{"state":"AR","name":"Randolph County","normalized":"randolph","lat":36.3413,"lon":-91.0284},"05123":{"state":"AR","name":"St. Francis County","normalized":"st. francis","lat":35.0228,"lon":-90.7515},"05125":{"state":"AR","name":"Saline County","normalized":"saline","lat":34.6485,"lon":-92.6745},"05127":{"state":"AR","name":"Scott County","normalized":"scott","lat":34.8589,"lon":-94.0636},"05129":{"state":"AR","name":"Searcy County","normalized":"searcy","lat":35.8964,"lon":-92.6959},"05131":{"state":"AR","name":"Sebastian County","normalized":"sebastian","lat":35.197,"lon":-94.275},"05133":{"state":"AR","name":"Sevier County","normalized":"sevier","lat":33.9949,"lon":-94.2433},"05135":{"state":"AR","name":"Sharp County","normalized":"sharp","lat":36.1734,"lon":-91.4711},"05137":{"state":"AR","name":"Stone County","normalized":"stone","lat":35.857,"lon":-92.1405},"05139":{"state":"AR","name":"Union County","normalized":"union","lat":33.1682,"lon":-92.5981},"05141":{"state":"AR","name":"Van Buren County","normalized":"van buren","lat":35.583,"lon":-92.516},"05143":{"state":"AR","name":"Washington County","normalized":"washington","lat":35.978,"lon":-94.2173},"05145":{"state":"AR","name":"White County","normalized":"white","lat":35.2551,"lon":-91.753},"05147":{"state":"AR","name":"Woodruff County","normalized":"woodruff","lat":35.1928,"lon":-91.2445},"05149":{"state":"AR","name":"Yell County","normalized":"yell","lat":34.9977,"lon":-93.4083},"06001":{"state":"CA","name":"Alameda County","normalized":"alameda","lat":37.6471,"lon":-121.9125},"06003":{"state":"CA","name":"Alpine County","normalized":"alpine","lat":38.6218,"lon":-119.7984},"06005":{"state":"CA","name":"Amador County","normalized":"amador","lat":38.4435,"lon":-120.6539},"06007":{"state":"CA","name":"Butte County","normalized":"butte","lat":39.6653,"lon":-121.6032},"06009":{"state":"CA","name":"Calaveras County","normalized":"calaveras","lat":38.1911,"lon":-120.5541},"06011":{"state":"CA","name":"Colusa County","normalized":"colusa","lat":39.1777,"lon":-122.2376},"06013":{"state":"CA","name":"Contra Costa County","normalized":"contra costa","lat":37.9195,"lon":-121.9515},"06015":{"state":"CA","name":"Del Norte County","normalized":"del norte","lat":41.7499,"lon":-123.981},"06017":{"state":"CA","name":"El Dorado County","normalized":"el dorado","lat":38.7856,"lon":-120.5342},"06019":{"state":"CA","name":"Fresno County","normalized":"fresno","lat":36.761,"lon":-119.655},"06021":{"state":"CA","name":"Glenn County","normalized":"glenn","lat":39.6025,"lon":-122.4017},"06023":{"state":"CA","name":"Humboldt County","normalized":"humboldt","lat":40.7067,"lon":-123.9262},"06025":{"state":"CA","name":"Imperial County","normalized":"imperial","lat":33.0408,"lon":-115.3554},"06027":{"state":"CA","name":"Inyo County","normalized":"inyo","lat":36.5622,"lon":-117.4042},"06029":{"state":"CA","name":"Kern County","normalized":"kern","lat":35.3466,"lon":-118.7295},"06031":{"state":"CA","name":"Kings County","normalized":"kings","lat":36.0725,"lon":-119.8155},"06033":{"state":"CA","name":"Lake County","normalized":"lake","lat":39.108,"lon":-122.7452},"06035":{"state":"CA","name":"Lassen County","normalized":"lassen","lat":40.7153,"lon":-120.6212},"06037":{"state":"CA","name":"Los Angeles County","normalized":"los angeles","lat":34.1964,"lon":-118.2619},"06039":{"state":"CA","name":"Madera County","normalized":"madera","lat":37.2098,"lon":-119.7498},"06041":{"state":"CA","name":"Marin County","normalized":"marin","lat":38.0514,"lon":-122.7464},"06043":{"state":"CA","name":"Mariposa County","normalized":"mariposa","lat":37.5743,"lon":-119.9117},"06045":{"state":"CA","name":"Mendocino County","normalized":"mendocino","lat":39.4324,"lon":-123.4429},"06047":{"state":"CA","name":"Merced County","normalized":"merced","lat":37.1948,"lon":-120.7228},"06049":{"state":"CA","name":"Modoc County","normalized":"modoc","lat":41.5929,"lon":-120.7184},"06051":{"state":"CA","name":"Mono County","normalized":"mono","lat":37.9158,"lon":-118.8752},"06053":{"state":"CA","name":"Monterey County","normalized":"monterey","lat":36.2401,"lon":-121.3156},"06055":{"state":"CA","name":"Napa County","normalized":"napa","lat":38.5071,"lon":-122.3259},"06057":{"state":"CA","name":"Nevada County","normalized":"nevada","lat":39.2975,"lon":-120.7713},"06059":{"state":"CA","name":"Orange County","normalized":"orange","lat":33.6757,"lon":-117.7772},"06061":{"state":"CA","name":"Placer County","normalized":"placer","lat":39.062,"lon":-120.7227},"06063":{"state":"CA","name":"Plumas County","normalized":"plumas","lat":39.9923,"lon":-120.8244},"06065":{"state":"CA","name":"Riverside County","normalized":"riverside","lat":33.7298,"lon":-116.0022},"06067":{"state":"CA","name":"Sacramento County","normalized":"sacramento","lat":38.4501,"lon":-121.3443},"06069":{"state":"CA","name":"San Benito County","normalized":"san benito","lat":36.6117,"lon":-121.0858},"06071":{"state":"CA","name":"San Bernardino County","normalized":"san bernardino","lat":34.8567,"lon":-116.1816},"06073":{"state":"CA","name":"San Diego County","normalized":"san diego","lat":33.0236,"lon":-116.7761},"06075":{"state":"CA","name":"San Francisco County","normalized":"san francisco","lat":37.7272,"lon":-123.0322},"06077":{"state":"CA","name":"San Joaquin County","normalized":"san joaquin","lat":37.935,"lon":-121.2722},"06079":{"state":"CA","name":"San Luis Obispo County","normalized":"san luis obispo","lat":35.3882,"lon":-120.4489},"06081":{"state":"CA","name":"San Mateo County","normalized":"san mateo","lat":37.4147,"lon":-122.3715},"06083":{"state":"CA","name":"Santa Barbara County","normalized":"santa barbara","lat":34.5367,"lon":-120.0384},"06085":{"state":"CA","name":"Santa Clara County","normalized":"santa clara","lat":37.2216,"lon":-121.6895},"06087":{"state":"CA","name":"Santa Cruz County","normalized":"santa cruz","lat":37.0123,"lon":-122.0078},"06089":{"state":"CA","name":"Shasta County","normalized":"shasta","lat":40.7605,"lon":-122.0436},"06091":{"state":"CA","name":"Sierra County","normalized":"sierra","lat":39.5769,"lon":-120.522},"06093":{"state":"CA","name":"Siskiyou County","normalized":"siskiyou","lat":41.588,"lon":-122.5333},"06095":{"state":"CA","name":"Solano County","normalized":"solano","lat":38.2672,"lon":-121.9396},"06097":{"state":"CA","name":"Sonoma County","normalized":"sonoma","lat":38.5252,"lon":-122.9261},"06099":{"state":"CA","name":"Stanislaus County","normalized":"stanislaus","lat":37.5623,"lon":-121.0028},"06101":{"state":"CA","name":"Sutter County","normalized":"sutter","lat":39.0362,"lon":-121.7039},"06103":{"state":"CA","name":"Tehama County","normalized":"tehama","lat":40.1262,"lon":-122.2323},"06105":{"state":"CA","name":"Trinity County","normalized":"trinity","lat":40.6479,"lon":-123.1147},"06107":{"state":"CA","name":"Tulare County","normalized":"tulare","lat":36.2288,"lon":-118.7811},"06109":{"state":"CA","name":"Tuolumne County","normalized":"tuolumne","lat":38.0214,"lon":-119.9647},"06111":{"state":"CA","name":"Ventura County","normalized":"ventura","lat":34.3587,"lon":-119.1331},"06113":{"state":"CA","name":"Yolo County","normalized":"yolo","lat":38.6796,"lon":-121.9027},"06115":{"state":"CA","name":"Yuba County","normalized":"yuba","lat":39.2701,"lon":-121.3443},"08001":{"state":"CO","name":"Adams County","normalized":"adams","lat":39.8743,"lon":-104.3319},"08003":{"state":"CO","name":"Alamosa County","normalized":"alamosa","lat":37.5684,"lon":-105.788},"08005":{"state":"CO","name":"Arapahoe County","normalized":"arapahoe","lat":39.6446,"lon":-104.3317},"08007":{"state":"CO","name":"Archuleta County","normalized":"archuleta","lat":37.2024,"lon":-107.0509},"08009":{"state":"CO","name":"Baca County","normalized":"baca","lat":37.3098,"lon":-102.5437},"08011":{"state":"CO","name":"Bent County","normalized":"bent","lat":37.9319,"lon":-103.0776},"08013":{"state":"CO","name":"Boulder County","normalized":"boulder","lat":40.095,"lon":-105.3977},"08014":{"state":"CO","name":"Broomfield County","normalized":"broomfield","lat":39.9536,"lon":-105.0508},"08015":{"state":"CO","name":"Chaffee County","normalized":"chaffee","lat":38.7346,"lon":-106.3},"08017":{"state":"CO","name":"Cheyenne County","normalized":"cheyenne","lat":38.8356,"lon":-102.6018},"08019":{"state":"CO","name":"Clear Creek County","normalized":"clear creek","lat":39.6894,"lon":-105.6708},"08021":{"state":"CO","name":"Conejos County","normalized":"conejos","lat":37.2134,"lon":-106.1764},"08023":{"state":"CO","name":"Costilla County","normalized":"costilla","lat":37.2775,"lon":-105.4289},"08025":{"state":"CO","name":"Crowley County","normalized":"crowley","lat":38.3062,"lon":-103.7727},"08027":{"state":"CO","name":"Custer County","normalized":"custer","lat":38.102,"lon":-105.3735},"08029":{"state":"CO","name":"Delta County","normalized":"delta","lat":38.8614,"lon":-107.865},"08031":{"state":"CO","name":"Denver County","normalized":"denver","lat":39.7619,"lon":-104.8811},"08033":{"state":"CO","name":"Dolores County","normalized":"dolores","lat":37.7338,"lon":-108.5062},"08035":{"state":"CO","name":"Douglas County","normalized":"douglas","lat":39.3254,"lon":-104.926},"08037":{"state":"CO","name":"Eagle County","normalized":"eagle","lat":39.627,"lon":-106.6952},"08039":{"state":"CO","name":"Elbert County","normalized":"elbert","lat":39.3152,"lon":-104.1141},"08041":{"state":"CO","name":"El Paso County","normalized":"el paso","lat":38.8274,"lon":-104.5275},"08043":{"state":"CO","name":"Fremont County","normalized":"fremont","lat":38.4552,"lon":-105.425},"08045":{"state":"CO","name":"Garfield County","normalized":"garfield","lat":39.5994,"lon":-107.9098},"08047":{"state":"CO","name":"Gilpin County","normalized":"gilpin","lat":39.8612,"lon":-105.5289},"08049":{"state":"CO","name":"Grand County","normalized":"grand","lat":40.1131,"lon":-106.1108},"08051":{"state":"CO","name":"Gunnison County","normalized":"gunnison","lat":38.6705,"lon":-107.0569},"08053":{"state":"CO","name":"Hinsdale County","normalized":"hinsdale","lat":37.8115,"lon":-107.384},"08055":{"state":"CO","name":"Huerfano County","normalized":"huerfano","lat":37.6878,"lon":-104.9599},"08057":{"state":"CO","name":"Jackson County","normalized":"jackson","lat":40.6634,"lon":-106.3292},"08059":{"state":"CO","name":"Jefferson County","normalized":"jefferson","lat":39.5795,"lon":-105.2455},"08061":{"state":"CO","name":"Kiowa County","normalized":"kiowa","lat":38.3877,"lon":-102.7568},"08063":{"state":"CO","name":"Kit Carson County","normalized":"kit carson","lat":39.3053,"lon":-102.603},"08065":{"state":"CO","name":"Lake County","normalized":"lake","lat":39.2053,"lon":-106.3501},"08067":{"state":"CO","name":"La Plata County","normalized":"la plata","lat":37.2874,"lon":-107.8397},"08069":{"state":"CO","name":"Larimer County","normalized":"larimer","lat":40.6581,"lon":-105.4868},"08071":{"state":"CO","name":"Las Animas County","normalized":"las animas","lat":37.3188,"lon":-104.0441},"08073":{"state":"CO","name":"Lincoln County","normalized":"lincoln","lat":38.9937,"lon":-103.5076},"08075":{"state":"CO","name":"Logan County","normalized":"logan","lat":40.7281,"lon":-103.0905},"08077":{"state":"CO","name":"Mesa County","normalized":"mesa","lat":39.0195,"lon":-108.4606},"08079":{"state":"CO","name":"Mineral County","normalized":"mineral","lat":37.5491,"lon":-107.0032},"08081":{"state":"CO","name":"Moffat County","normalized":"moffat","lat":40.6109,"lon":-108.2172},"08083":{"state":"CO","name":"Montezuma County","normalized":"montezuma","lat":37.338,"lon":-108.5958},"08085":{"state":"CO","name":"Montrose County","normalized":"montrose","lat":38.4075,"lon":-108.2663},"08087":{"state":"CO","name":"Morgan County","normalized":"morgan","lat":40.2632,"lon":-103.8122},"08089":{"state":"CO","name":"Otero County","normalized":"otero","lat":37.8842,"lon":-103.7213},"08091":{"state":"CO","name":"Ouray County","normalized":"ouray","lat":38.1547,"lon":-107.7885},"08093":{"state":"CO","name":"Park County","normalized":"park","lat":39.1189,"lon":-105.7176},"08095":{"state":"CO","name":"Phillips County","normalized":"phillips","lat":40.5947,"lon":-102.3451},"08097":{"state":"CO","name":"Pitkin County","normalized":"pitkin","lat":39.2175,"lon":-106.9162},"08099":{"state":"CO","name":"Prowers County","normalized":"prowers","lat":37.9582,"lon":-102.3922},"08101":{"state":"CO","name":"Pueblo County","normalized":"pueblo","lat":38.1628,"lon":-104.4847},"08103":{"state":"CO","name":"Rio Blanco County","normalized":"rio blanco","lat":39.9726,"lon":-108.2007},"08105":{"state":"CO","name":"Rio Grande County","normalized":"rio grande","lat":37.4859,"lon":-106.4531},"08107":{"state":"CO","name":"Routt County","normalized":"routt","lat":40.4837,"lon":-106.9877},"08109":{"state":"CO","name":"Saguache County","normalized":"saguache","lat":38.0317,"lon":-106.2347},"08111":{"state":"CO","name":"San Juan County","normalized":"san juan","lat":37.781,"lon":-107.6703},"08113":{"state":"CO","name":"San Miguel County","normalized":"san miguel","lat":38.0093,"lon":-108.4273},"08115":{"state":"CO","name":"Sedgwick County","normalized":"sedgwick","lat":40.8716,"lon":-102.3554},"08117":{"state":"CO","name":"Summit County","normalized":"summit","lat":39.621,"lon":-106.1376},"08119":{"state":"CO","name":"Teller County","normalized":"teller","lat":38.87,"lon":-105.1874},"08121":{"state":"CO","name":"Washington County","normalized":"washington","lat":39.9658,"lon":-103.2097},"08123":{"state":"CO","name":"Weld County","normalized":"weld","lat":40.556,"lon":-104.3837},"08125":{"state":"CO","name":"Yuma County","normalized":"yuma","lat":40.0008,"lon":-102.4216},"09110":{"state":"CT","name":"Capitol Planning Region","normalized":"capitol planning region","lat":41.817,"lon":-72.5759},"09120":{"state":"CT","name":"Greater Bridgeport Planning Region","normalized":"greater bridgeport planning region","lat":41.1846,"lon":-73.2094},"09130":{"state":"CT","name":"Lower Connecticut River Valley Planning Region","normalized":"lower connecticut river valley planning region","lat":41.4203,"lon":-72.4935},"09140":{"state":"CT","name":"Naugatuck Valley Planning Region","normalized":"naugatuck valley planning region","lat":41.5189,"lon":-73.0879},"09150":{"state":"CT","name":"Northeastern Connecticut Planning Region","normalized":"northeastern connecticut planning region","lat":41.8424,"lon":-71.9727},"09160":{"state":"CT","name":"Northwest Hills Planning Region","normalized":"northwest hills planning region","lat":41.8548,"lon":-73.2215},"09170":{"state":"CT","name":"South Central Connecticut Planning Region","normalized":"south central connecticut planning region","lat":41.2902,"lon":-72.837},"09180":{"state":"CT","name":"Southeastern Connecticut Planning Region","normalized":"southeastern connecticut planning region","lat":41.4848,"lon":-72.1017},"09190":{"state":"CT","name":"Western Connecticut Planning Region","normalized":"western connecticut planning region","lat":41.2791,"lon":-73.4466},"10001":{"state":"DE","name":"Kent County","normalized":"kent","lat":39.0971,"lon":-75.503},"10003":{"state":"DE","name":"New Castle County","normalized":"new castle","lat":39.5759,"lon":-75.6441},"10005":{"state":"DE","name":"Sussex County","normalized":"sussex","lat":38.6732,"lon":-75.337},"11001":{"state":"DC","name":"District of Columbia","normalized":"district of columbia","lat":38.9042,"lon":-77.0165},"12001":{"state":"FL","name":"Alachua County","normalized":"alachua","lat":29.6757,"lon":-82.3572},"12003":{"state":"FL","name":"Baker County","normalized":"baker","lat":30.3244,"lon":-82.3023},"12005":{"state":"FL","name":"Bay County","normalized":"bay","lat":30.1591,"lon":-85.5344},"12007":{"state":"FL","name":"Bradford County","normalized":"bradford","lat":29.9524,"lon":-82.1667},"12009":{"state":"FL","name":"Brevard County","normalized":"brevard","lat":28.2983,"lon":-80.7003},"12011":{"state":"FL","name":"Broward County","normalized":"broward","lat":26.1935,"lon":-80.4767},"12013":{"state":"FL","name":"Calhoun County","normalized":"calhoun","lat":30.3888,"lon":-85.1979},"12015":{"state":"FL","name":"Charlotte County","normalized":"charlotte","lat":26.9064,"lon":-82.0037},"12017":{"state":"FL","name":"Citrus County","normalized":"citrus","lat":28.8503,"lon":-82.5956},"12019":{"state":"FL","name":"Clay County","normalized":"clay","lat":29.9866,"lon":-81.865},"12021":{"state":"FL","name":"Collier County","normalized":"collier","lat":26.1188,"lon":-81.401},"12023":{"state":"FL","name":"Columbia County","normalized":"columbia","lat":30.2217,"lon":-82.6234},"12027":{"state":"FL","name":"DeSoto County","normalized":"desoto","lat":27.1906,"lon":-81.8063},"12029":{"state":"FL","name":"Dixie County","normalized":"dixie","lat":29.5527,"lon":-83.2362},"12031":{"state":"FL","name":"Duval County","normalized":"duval","lat":30.3352,"lon":-81.6481},"12033":{"state":"FL","name":"Escambia County","normalized":"escambia","lat":30.53,"lon":-87.3203},"12035":{"state":"FL","name":"Flagler County","normalized":"flagler","lat":29.4749,"lon":-81.2863},"12037":{"state":"FL","name":"Franklin County","normalized":"franklin","lat":29.6778,"lon":-84.8152},"12039":{"state":"FL","name":"Gadsden County","normalized":"gadsden","lat":30.5787,"lon":-84.6126},"12041":{"state":"FL","name":"Gilchrist County","normalized":"gilchrist","lat":29.7235,"lon":-82.7958},"12043":{"state":"FL","name":"Glades County","normalized":"glades","lat":26.9548,"lon":-81.1908},"12045":{"state":"FL","name":"Gulf County","normalized":"gulf","lat":29.8592,"lon":-85.272},"12047":{"state":"FL","name":"Hamilton County","normalized":"hamilton","lat":30.4984,"lon":-82.9511},"12049":{"state":"FL","name":"Hardee County","normalized":"hardee","lat":27.4928,"lon":-81.8216},"12051":{"state":"FL","name":"Hendry County","normalized":"hendry","lat":26.54,"lon":-81.1521},"12053":{"state":"FL","name":"Hernando County","normalized":"hernando","lat":28.556,"lon":-82.526},"12055":{"state":"FL","name":"Highlands County","normalized":"highlands","lat":27.3411,"lon":-81.3424},"12057":{"state":"FL","name":"Hillsborough County","normalized":"hillsborough","lat":27.8932,"lon":-82.38},"12059":{"state":"FL","name":"Holmes County","normalized":"holmes","lat":30.862,"lon":-85.8159},"12061":{"state":"FL","name":"Indian River County","normalized":"indian river","lat":27.7005,"lon":-80.5748},"12063":{"state":"FL","name":"Jackson County","normalized":"jackson","lat":30.7892,"lon":-85.2088},"12065":{"state":"FL","name":"Jefferson County","normalized":"jefferson","lat":30.3969,"lon":-83.9218},"12067":{"state":"FL","name":"Lafayette County","normalized":"lafayette","lat":29.9901,"lon":-83.1785},"12069":{"state":"FL","name":"Lake County","normalized":"lake","lat":28.7641,"lon":-81.7123},"12071":{"state":"FL","name":"Lee County","normalized":"lee","lat":26.5633,"lon":-81.9842},"12073":{"state":"FL","name":"Leon County","normalized":"leon","lat":30.4593,"lon":-84.2778},"12075":{"state":"FL","name":"Levy County","normalized":"levy","lat":29.2719,"lon":-82.8312},"12077":{"state":"FL","name":"Liberty County","normalized":"liberty","lat":30.2598,"lon":-84.8686},"12079":{"state":"FL","name":"Madison County","normalized":"madison","lat":30.4472,"lon":-83.4704},"12081":{"state":"FL","name":"Manatee County","normalized":"manatee","lat":27.4756,"lon":-82.3931},"12083":{"state":"FL","name":"Marion County","normalized":"marion","lat":29.2028,"lon":-82.0431},"12085":{"state":"FL","name":"Martin County","normalized":"martin","lat":27.0836,"lon":-80.3982},"12086":{"state":"FL","name":"Miami-Dade County","normalized":"miami-dade","lat":25.616,"lon":-80.5037},"12087":{"state":"FL","name":"Monroe County","normalized":"monroe","lat":25.5861,"lon":-81.0226},"12089":{"state":"FL","name":"Nassau County","normalized":"nassau","lat":30.606,"lon":-81.7651},"12091":{"state":"FL","name":"Okaloosa County","normalized":"okaloosa","lat":30.6143,"lon":-86.5911},"12093":{"state":"FL","name":"Okeechobee County","normalized":"okeechobee","lat":27.3856,"lon":-80.8874},"12095":{"state":"FL","name":"Orange County","normalized":"orange","lat":28.5144,"lon":-81.3233},"12097":{"state":"FL","name":"Osceola County","normalized":"osceola","lat":28.059,"lon":-81.1393},"12099":{"state":"FL","name":"Palm Beach County","normalized":"palm beach","lat":26.6491,"lon":-80.4484},"12101":{"state":"FL","name":"Pasco County","normalized":"pasco","lat":28.3098,"lon":-82.511},"12103":{"state":"FL","name":"Pinellas County","normalized":"pinellas","lat":27.9053,"lon":-82.7981},"12105":{"state":"FL","name":"Polk County","normalized":"polk","lat":27.9537,"lon":-81.6935},"12107":{"state":"FL","name":"Putnam County","normalized":"putnam","lat":29.5939,"lon":-81.732},"12109":{"state":"FL","name":"St. Johns County","normalized":"st. johns","lat":29.8905,"lon":-81.4},"12111":{"state":"FL","name":"St. Lucie County","normalized":"st. lucie","lat":27.3798,"lon":-80.4435},"12113":{"state":"FL","name":"Santa Rosa County","normalized":"santa rosa","lat":30.6753,"lon":-87.0189},"12115":{"state":"FL","name":"Sarasota County","normalized":"sarasota","lat":27.2253,"lon":-82.4237},"12117":{"state":"FL","name":"Seminole County","normalized":"seminole","lat":28.6901,"lon":-81.132},"12119":{"state":"FL","name":"Sumter County","normalized":"sumter","lat":28.714,"lon":-82.0697},"12121":{"state":"FL","name":"Suwannee County","normalized":"suwannee","lat":30.1892,"lon":-82.9928},"12123":{"state":"FL","name":"Taylor County","normalized":"taylor","lat":29.9671,"lon":-83.6396},"12125":{"state":"FL","name":"Union County","normalized":"union","lat":30.0543,"lon":-82.3669},"12127":{"state":"FL","name":"Volusia County","normalized":"volusia","lat":29.0578,"lon":-81.1618},"12129":{"state":"FL","name":"Wakulla County","normalized":"wakulla","lat":30.0913,"lon":-84.3591},"12131":{"state":"FL","name":"Walton County","normalized":"walton","lat":30.5712,"lon":-86.1628},"12133":{"state":"FL","name":"Washington County","normalized":"washington","lat":30.6021,"lon":-85.6558},"13001":{"state":"GA","name":"Appling County","normalized":"appling","lat":31.7397,"lon":-82.2901},"13003":{"state":"GA","name":"Atkinson County","normalized":"atkinson","lat":31.2968,"lon":-82.8782},"13005":{"state":"GA","name":"Bacon County","normalized":"bacon","lat":31.5502,"lon":-82.4514},"13007":{"state":"GA","name":"Baker County","normalized":"baker","lat":31.3196,"lon":-84.4549},"13009":{"state":"GA","name":"Baldwin County","normalized":"baldwin","lat":33.0595,"lon":-83.2555},"13011":{"state":"GA","name":"Banks County","normalized":"banks","lat":34.3519,"lon":-83.4984},"13013":{"state":"GA","name":"Barrow County","normalized":"barrow","lat":33.992,"lon":-83.7123},"13015":{"state":"GA","name":"Bartow County","normalized":"bartow","lat":34.2409,"lon":-84.8382},"13017":{"state":"GA","name":"Ben Hill County","normalized":"ben hill","lat":31.7408,"lon":-83.1472},"13019":{"state":"GA","name":"Berrien County","normalized":"berrien","lat":31.2887,"lon":-83.2279},"13021":{"state":"GA","name":"Bibb County","normalized":"bibb","lat":32.8088,"lon":-83.6942},"13023":{"state":"GA","name":"Bleckley County","normalized":"bleckley","lat":32.4354,"lon":-83.3317},"13025":{"state":"GA","name":"Brantley County","normalized":"brantley","lat":31.1973,"lon":-81.983},"13027":{"state":"GA","name":"Brooks County","normalized":"brooks","lat":30.8229,"lon":-83.5819},"13029":{"state":"GA","name":"Bryan County","normalized":"bryan","lat":32.018,"lon":-81.4385},"13031":{"state":"GA","name":"Bulloch County","normalized":"bulloch","lat":32.3945,"lon":-81.7416},"13033":{"state":"GA","name":"Burke County","normalized":"burke","lat":33.0602,"lon":-82.0002},"13035":{"state":"GA","name":"Butts County","normalized":"butts","lat":33.2904,"lon":-83.9582},"13037":{"state":"GA","name":"Calhoun County","normalized":"calhoun","lat":31.5213,"lon":-84.6263},"13039":{"state":"GA","name":"Camden County","normalized":"camden","lat":30.9134,"lon":-81.642},"13043":{"state":"GA","name":"Candler County","normalized":"candler","lat":32.404,"lon":-82.0713},"13045":{"state":"GA","name":"Carroll County","normalized":"carroll","lat":33.5822,"lon":-85.0805},"13047":{"state":"GA","name":"Catoosa County","normalized":"catoosa","lat":34.9002,"lon":-85.1394},"13049":{"state":"GA","name":"Charlton County","normalized":"charlton","lat":30.7799,"lon":-82.1396},"13051":{"state":"GA","name":"Chatham County","normalized":"chatham","lat":31.9804,"lon":-81.0852},"13053":{"state":"GA","name":"Chattahoochee County","normalized":"chattahoochee","lat":32.3474,"lon":-84.788},"13055":{"state":"GA","name":"Chattooga County","normalized":"chattooga","lat":34.4742,"lon":-85.3453},"13057":{"state":"GA","name":"Cherokee County","normalized":"cherokee","lat":34.2443,"lon":-84.4751},"13059":{"state":"GA","name":"Clarke County","normalized":"clarke","lat":33.9522,"lon":-83.3672},"13061":{"state":"GA","name":"Clay County","normalized":"clay","lat":31.6198,"lon":-84.9926},"13063":{"state":"GA","name":"Clayton County","normalized":"clayton","lat":33.5516,"lon":-84.4129},"13065":{"state":"GA","name":"Clinch County","normalized":"clinch","lat":30.9177,"lon":-82.7026},"13067":{"state":"GA","name":"Cobb County","normalized":"cobb","lat":33.9399,"lon":-84.5741},"13069":{"state":"GA","name":"Coffee County","normalized":"coffee","lat":31.5492,"lon":-82.8449},"13071":{"state":"GA","name":"Colquitt County","normalized":"colquitt","lat":31.1897,"lon":-83.7698},"13073":{"state":"GA","name":"Columbia County","normalized":"columbia","lat":33.5521,"lon":-82.2496},"13075":{"state":"GA","name":"Cook County","normalized":"cook","lat":31.1525,"lon":-83.4294},"13077":{"state":"GA","name":"Coweta County","normalized":"coweta","lat":33.3529,"lon":-84.7621},"13079":{"state":"GA","name":"Crawford County","normalized":"crawford","lat":32.7094,"lon":-83.9792},"13081":{"state":"GA","name":"Crisp County","normalized":"crisp","lat":31.9203,"lon":-83.7565},"13083":{"state":"GA","name":"Dade County","normalized":"dade","lat":34.8524,"lon":-85.5062},"13085":{"state":"GA","name":"Dawson County","normalized":"dawson","lat":34.4426,"lon":-84.1733},"13087":{"state":"GA","name":"Decatur County","normalized":"decatur","lat":30.8806,"lon":-84.5839},"13089":{"state":"GA","name":"DeKalb County","normalized":"dekalb","lat":33.7707,"lon":-84.2263},"13091":{"state":"GA","name":"Dodge County","normalized":"dodge","lat":32.1644,"lon":-83.1679},"13093":{"state":"GA","name":"Dooly County","normalized":"dooly","lat":32.152,"lon":-83.8072},"13095":{"state":"GA","name":"Dougherty County","normalized":"dougherty","lat":31.5326,"lon":-84.209},"13097":{"state":"GA","name":"Douglas County","normalized":"douglas","lat":33.7012,"lon":-84.7673},"13099":{"state":"GA","name":"Early County","normalized":"early","lat":31.3242,"lon":-84.9067},"13101":{"state":"GA","name":"Echols County","normalized":"echols","lat":30.714,"lon":-82.8974},"13103":{"state":"GA","name":"Effingham County","normalized":"effingham","lat":32.3617,"lon":-81.3434},"13105":{"state":"GA","name":"Elbert County","normalized":"elbert","lat":34.1164,"lon":-82.8419},"13107":{"state":"GA","name":"Emanuel County","normalized":"emanuel","lat":32.5911,"lon":-82.2998},"13109":{"state":"GA","name":"Evans County","normalized":"evans","lat":32.1531,"lon":-81.8902},"13111":{"state":"GA","name":"Fannin County","normalized":"fannin","lat":34.8665,"lon":-84.3173},"13113":{"state":"GA","name":"Fayette County","normalized":"fayette","lat":33.4127,"lon":-84.4939},"13115":{"state":"GA","name":"Floyd County","normalized":"floyd","lat":34.2637,"lon":-85.2137},"13117":{"state":"GA","name":"Forsyth County","normalized":"forsyth","lat":34.2251,"lon":-84.1274},"13119":{"state":"GA","name":"Franklin County","normalized":"franklin","lat":34.3753,"lon":-83.2275},"13121":{"state":"GA","name":"Fulton County","normalized":"fulton","lat":33.79,"lon":-84.4682},"13123":{"state":"GA","name":"Gilmer County","normalized":"gilmer","lat":34.6905,"lon":-84.4548},"13125":{"state":"GA","name":"Glascock County","normalized":"glascock","lat":33.2275,"lon":-82.6069},"13127":{"state":"GA","name":"Glynn County","normalized":"glynn","lat":31.2127,"lon":-81.4964},"13129":{"state":"GA","name":"Gordon County","normalized":"gordon","lat":34.5097,"lon":-84.8739},"13131":{"state":"GA","name":"Grady County","normalized":"grady","lat":30.8759,"lon":-84.245},"13133":{"state":"GA","name":"Greene County","normalized":"greene","lat":33.5767,"lon":-83.1666},"13135":{"state":"GA","name":"Gwinnett County","normalized":"gwinnett","lat":33.9588,"lon":-84.0257},"13137":{"state":"GA","name":"Habersham County","normalized":"habersham","lat":34.6344,"lon":-83.5259},"13139":{"state":"GA","name":"Hall County","normalized":"hall","lat":34.3176,"lon":-83.8185},"13141":{"state":"GA","name":"Hancock County","normalized":"hancock","lat":33.2692,"lon":-83.0005},"13143":{"state":"GA","name":"Haralson County","normalized":"haralson","lat":33.7952,"lon":-85.2201},"13145":{"state":"GA","name":"Harris County","normalized":"harris","lat":32.7315,"lon":-84.9124},"13147":{"state":"GA","name":"Hart County","normalized":"hart","lat":34.3487,"lon":-82.9633},"13149":{"state":"GA","name":"Heard County","normalized":"heard","lat":33.2913,"lon":-85.1379},"13151":{"state":"GA","name":"Henry County","normalized":"henry","lat":33.4529,"lon":-84.154},"13153":{"state":"GA","name":"Houston County","normalized":"houston","lat":32.4581,"lon":-83.6623},"13155":{"state":"GA","name":"Irwin County","normalized":"irwin","lat":31.6043,"lon":-83.277},"13157":{"state":"GA","name":"Jackson County","normalized":"jackson","lat":34.1309,"lon":-83.5626},"13159":{"state":"GA","name":"Jasper County","normalized":"jasper","lat":33.317,"lon":-83.6892},"13161":{"state":"GA","name":"Jeff Davis County","normalized":"jeff davis","lat":31.8116,"lon":-82.6368},"13163":{"state":"GA","name":"Jefferson County","normalized":"jefferson","lat":33.0582,"lon":-82.42},"13165":{"state":"GA","name":"Jenkins County","normalized":"jenkins","lat":32.7946,"lon":-81.9715},"13167":{"state":"GA","name":"Johnson County","normalized":"johnson","lat":32.6946,"lon":-82.664},"13169":{"state":"GA","name":"Jones County","normalized":"jones","lat":33.0217,"lon":-83.5622},"13171":{"state":"GA","name":"Lamar County","normalized":"lamar","lat":33.0744,"lon":-84.1467},"13173":{"state":"GA","name":"Lanier County","normalized":"lanier","lat":31.0382,"lon":-83.0632},"13175":{"state":"GA","name":"Laurens County","normalized":"laurens","lat":32.3932,"lon":-82.9263},"13177":{"state":"GA","name":"Lee County","normalized":"lee","lat":31.8184,"lon":-84.1467},"13179":{"state":"GA","name":"Liberty County","normalized":"liberty","lat":31.8075,"lon":-81.4579},"13181":{"state":"GA","name":"Lincoln County","normalized":"lincoln","lat":33.7922,"lon":-82.4483},"13183":{"state":"GA","name":"Long County","normalized":"long","lat":31.7496,"lon":-81.7429},"13185":{"state":"GA","name":"Lowndes County","normalized":"lowndes","lat":30.8331,"lon":-83.269},"13187":{"state":"GA","name":"Lumpkin County","normalized":"lumpkin","lat":34.5681,"lon":-83.9989},"13189":{"state":"GA","name":"McDuffie County","normalized":"mcduffie","lat":33.4806,"lon":-82.4795},"13191":{"state":"GA","name":"McIntosh County","normalized":"mcintosh","lat":31.4856,"lon":-81.3721},"13193":{"state":"GA","name":"Macon County","normalized":"macon","lat":32.3627,"lon":-84.0512},"13195":{"state":"GA","name":"Madison County","normalized":"madison","lat":34.1275,"lon":-83.2087},"13197":{"state":"GA","name":"Marion County","normalized":"marion","lat":32.3593,"lon":-84.5287},"13199":{"state":"GA","name":"Meriwether County","normalized":"meriwether","lat":33.0293,"lon":-84.6671},"13201":{"state":"GA","name":"Miller County","normalized":"miller","lat":31.1629,"lon":-84.7304},"13205":{"state":"GA","name":"Mitchell County","normalized":"mitchell","lat":31.229,"lon":-84.192},"13207":{"state":"GA","name":"Monroe County","normalized":"monroe","lat":33.0188,"lon":-83.9218},"13209":{"state":"GA","name":"Montgomery County","normalized":"montgomery","lat":32.1721,"lon":-82.5333},"13211":{"state":"GA","name":"Morgan County","normalized":"morgan","lat":33.5987,"lon":-83.4994},"13213":{"state":"GA","name":"Murray County","normalized":"murray","lat":34.7971,"lon":-84.738},"13215":{"state":"GA","name":"Muscogee County","normalized":"muscogee","lat":32.5102,"lon":-84.8749},"13217":{"state":"GA","name":"Newton County","normalized":"newton","lat":33.5528,"lon":-83.8514},"13219":{"state":"GA","name":"Oconee County","normalized":"oconee","lat":33.8341,"lon":-83.4377},"13221":{"state":"GA","name":"Oglethorpe County","normalized":"oglethorpe","lat":33.8668,"lon":-83.0741},"13223":{"state":"GA","name":"Paulding County","normalized":"paulding","lat":33.921,"lon":-84.8672},"13225":{"state":"GA","name":"Peach County","normalized":"peach","lat":32.5713,"lon":-83.832},"13227":{"state":"GA","name":"Pickens County","normalized":"pickens","lat":34.4567,"lon":-84.4904},"13229":{"state":"GA","name":"Pierce County","normalized":"pierce","lat":31.354,"lon":-82.2104},"13231":{"state":"GA","name":"Pike County","normalized":"pike","lat":33.0811,"lon":-84.3895},"13233":{"state":"GA","name":"Polk County","normalized":"polk","lat":33.996,"lon":-85.1883},"13235":{"state":"GA","name":"Pulaski County","normalized":"pulaski","lat":32.2388,"lon":-83.4818},"13237":{"state":"GA","name":"Putnam County","normalized":"putnam","lat":33.3211,"lon":-83.3718},"13239":{"state":"GA","name":"Quitman County","normalized":"quitman","lat":31.8629,"lon":-85.0048},"13241":{"state":"GA","name":"Rabun County","normalized":"rabun","lat":34.8839,"lon":-83.4049},"13243":{"state":"GA","name":"Randolph County","normalized":"randolph","lat":31.7627,"lon":-84.7523},"13245":{"state":"GA","name":"Richmond County","normalized":"richmond","lat":33.3615,"lon":-82.075},"13247":{"state":"GA","name":"Rockdale County","normalized":"rockdale","lat":33.6521,"lon":-84.0264},"13249":{"state":"GA","name":"Schley County","normalized":"schley","lat":32.2634,"lon":-84.3227},"13251":{"state":"GA","name":"Screven County","normalized":"screven","lat":32.7448,"lon":-81.6176},"13253":{"state":"GA","name":"Seminole County","normalized":"seminole","lat":30.934,"lon":-84.8677},"13255":{"state":"GA","name":"Spalding County","normalized":"spalding","lat":33.2623,"lon":-84.2849},"13257":{"state":"GA","name":"Stephens County","normalized":"stephens","lat":34.5536,"lon":-83.2906},"13259":{"state":"GA","name":"Stewart County","normalized":"stewart","lat":32.0732,"lon":-84.8349},"13261":{"state":"GA","name":"Sumter County","normalized":"sumter","lat":32.0423,"lon":-84.2043},"13263":{"state":"GA","name":"Talbot County","normalized":"talbot","lat":32.7046,"lon":-84.53},"13265":{"state":"GA","name":"Taliaferro County","normalized":"taliaferro","lat":33.5593,"lon":-82.8753},"13267":{"state":"GA","name":"Tattnall County","normalized":"tattnall","lat":32.0438,"lon":-82.0592},"13269":{"state":"GA","name":"Taylor County","normalized":"taylor","lat":32.5547,"lon":-84.2514},"13271":{"state":"GA","name":"Telfair County","normalized":"telfair","lat":31.9136,"lon":-82.9311},"13273":{"state":"GA","name":"Terrell County","normalized":"terrell","lat":31.7772,"lon":-84.4394},"13275":{"state":"GA","name":"Thomas County","normalized":"thomas","lat":30.8646,"lon":-83.9198},"13277":{"state":"GA","name":"Tift County","normalized":"tift","lat":31.457,"lon":-83.5259},"13279":{"state":"GA","name":"Toombs County","normalized":"toombs","lat":32.1178,"lon":-82.3306},"13281":{"state":"GA","name":"Towns County","normalized":"towns","lat":34.9025,"lon":-83.7323},"13283":{"state":"GA","name":"Treutlen County","normalized":"treutlen","lat":32.4096,"lon":-82.5709},"13285":{"state":"GA","name":"Troup County","normalized":"troup","lat":33.0345,"lon":-85.0284},"13287":{"state":"GA","name":"Turner County","normalized":"turner","lat":31.7248,"lon":-83.6203},"13289":{"state":"GA","name":"Twiggs County","normalized":"twiggs","lat":32.6658,"lon":-83.4259},"13291":{"state":"GA","name":"Union County","normalized":"union","lat":34.8333,"lon":-83.9893},"13293":{"state":"GA","name":"Upson County","normalized":"upson","lat":32.8818,"lon":-84.2923},"13295":{"state":"GA","name":"Walker County","normalized":"walker","lat":34.7358,"lon":-85.3055},"13297":{"state":"GA","name":"Walton County","normalized":"walton","lat":33.7839,"lon":-83.7318},"13299":{"state":"GA","name":"Ware County","normalized":"ware","lat":31.0509,"lon":-82.4215},"13301":{"state":"GA","name":"Warren County","normalized":"warren","lat":33.4192,"lon":-82.688},"13303":{"state":"GA","name":"Washington County","normalized":"washington","lat":32.9718,"lon":-82.7981},"13305":{"state":"GA","name":"Wayne County","normalized":"wayne","lat":31.5478,"lon":-81.9124},"13307":{"state":"GA","name":"Webster County","normalized":"webster","lat":32.0467,"lon":-84.5538},"13309":{"state":"GA","name":"Wheeler County","normalized":"wheeler","lat":32.1053,"lon":-82.7338},"13311":{"state":"GA","name":"White County","normalized":"white","lat":34.6442,"lon":-83.743},"13313":{"state":"GA","name":"Whitfield County","normalized":"whitfield","lat":34.8017,"lon":-84.9685},"13315":{"state":"GA","name":"Wilcox County","normalized":"wilcox","lat":31.9627,"lon":-83.4383},"13317":{"state":"GA","name":"Wilkes County","normalized":"wilkes","lat":33.779,"lon":-82.7479},"13319":{"state":"GA","name":"Wilkinson County","normalized":"wilkinson","lat":32.8043,"lon":-83.1755},"13321":{"state":"GA","name":"Worth County","normalized":"worth","lat":31.5518,"lon":-83.85},"15001":{"state":"HI","name":"Hawaii County","normalized":"hawaii","lat":19.5978,"lon":-155.5024},"15003":{"state":"HI","name":"Honolulu County","normalized":"honolulu","lat":21.4614,"lon":-158.202},"15005":{"state":"HI","name":"Kalawao County","normalized":"kalawao","lat":21.2188,"lon":-156.974},"15007":{"state":"HI","name":"Kauai County","normalized":"kauai","lat":22.012,"lon":-159.706},"15009":{"state":"HI","name":"Maui County","normalized":"maui","lat":20.8559,"lon":-156.6016},"16001":{"state":"ID","name":"Ada County","normalized":"ada","lat":43.4515,"lon":-116.2444},"16003":{"state":"ID","name":"Adams County","normalized":"adams","lat":44.877,"lon":-116.4616},"16005":{"state":"ID","name":"Bannock County","normalized":"bannock","lat":42.6929,"lon":-112.229},"16007":{"state":"ID","name":"Bear Lake County","normalized":"bear lake","lat":42.2859,"lon":-111.3275},"16009":{"state":"ID","name":"Benewah County","normalized":"benewah","lat":47.2185,"lon":-116.6335},"16011":{"state":"ID","name":"Bingham County","normalized":"bingham","lat":43.2164,"lon":-112.3992},"16013":{"state":"ID","name":"Blaine County","normalized":"blaine","lat":43.3942,"lon":-113.9554},"16015":{"state":"ID","name":"Boise County","normalized":"boise","lat":43.9873,"lon":-115.7151},"16017":{"state":"ID","name":"Bonner County","normalized":"bonner","lat":48.3246,"lon":-116.6274},"16019":{"state":"ID","name":"Bonneville County","normalized":"bonneville","lat":43.3952,"lon":-111.6219},"16021":{"state":"ID","name":"Boundary County","normalized":"boundary","lat":48.7731,"lon":-116.5247},"16023":{"state":"ID","name":"Butte County","normalized":"butte","lat":43.6851,"lon":-113.1776},"16025":{"state":"ID","name":"Camas County","normalized":"camas","lat":43.5026,"lon":-114.7721},"16027":{"state":"ID","name":"Canyon County","normalized":"canyon","lat":43.6258,"lon":-116.7091},"16029":{"state":"ID","name":"Caribou County","normalized":"caribou","lat":42.7861,"lon":-111.5443},"16031":{"state":"ID","name":"Cassia County","normalized":"cassia","lat":42.2823,"lon":-113.6263},"16033":{"state":"ID","name":"Clark County","normalized":"clark","lat":44.2902,"lon":-112.3546},"16035":{"state":"ID","name":"Clearwater County","normalized":"clearwater","lat":46.6726,"lon":-115.6535},"16037":{"state":"ID","name":"Custer County","normalized":"custer","lat":44.2734,"lon":-114.2523},"16039":{"state":"ID","name":"Elmore County","normalized":"elmore","lat":43.3947,"lon":-115.4712},"16041":{"state":"ID","name":"Franklin County","normalized":"franklin","lat":42.1736,"lon":-111.823},"16043":{"state":"ID","name":"Fremont County","normalized":"fremont","lat":44.2181,"lon":-111.4844},"16045":{"state":"ID","name":"Gem County","normalized":"gem","lat":44.0615,"lon":-116.3988},"16047":{"state":"ID","name":"Gooding County","normalized":"gooding","lat":42.9732,"lon":-114.8214},"16049":{"state":"ID","name":"Idaho County","normalized":"idaho","lat":45.8496,"lon":-115.4673},"16051":{"state":"ID","name":"Jefferson County","normalized":"jefferson","lat":43.797,"lon":-112.3186},"16053":{"state":"ID","name":"Jerome County","normalized":"jerome","lat":42.6914,"lon":-114.2621},"16055":{"state":"ID","name":"Kootenai County","normalized":"kootenai","lat":47.676,"lon":-116.6959},"16057":{"state":"ID","name":"Latah County","normalized":"latah","lat":46.8189,"lon":-116.731},"16059":{"state":"ID","name":"Lemhi County","normalized":"lemhi","lat":44.9285,"lon":-113.887},"16061":{"state":"ID","name":"Lewis County","normalized":"lewis","lat":46.2363,"lon":-116.4238},"16063":{"state":"ID","name":"Lincoln County","normalized":"lincoln","lat":42.9908,"lon":-114.1531},"16065":{"state":"ID","name":"Madison County","normalized":"madison","lat":43.7886,"lon":-111.657},"16067":{"state":"ID","name":"Minidoka County","normalized":"minidoka","lat":42.8572,"lon":-113.6398},"16069":{"state":"ID","name":"Nez Perce County","normalized":"nez perce","lat":46.3338,"lon":-116.7609},"16071":{"state":"ID","name":"Oneida County","normalized":"oneida","lat":42.1839,"lon":-112.5204},"16073":{"state":"ID","name":"Owyhee County","normalized":"owyhee","lat":42.5729,"lon":-116.1897},"16075":{"state":"ID","name":"Payette County","normalized":"payette","lat":44.0024,"lon":-116.7502},"16077":{"state":"ID","name":"Power County","normalized":"power","lat":42.6941,"lon":-112.8444},"16079":{"state":"ID","name":"Shoshone County","normalized":"shoshone","lat":47.3477,"lon":-115.8851},"16081":{"state":"ID","name":"Teton County","normalized":"teton","lat":43.761,"lon":-111.2118},"16083":{"state":"ID","name":"Twin Falls County","normalized":"twin falls","lat":42.3523,"lon":-114.6656},"16085":{"state":"ID","name":"Valley County","normalized":"valley","lat":44.856,"lon":-115.6181},"16087":{"state":"ID","name":"Washington County","normalized":"washington","lat":44.4482,"lon":-116.7978},"17001":{"state":"IL","name":"Adams County","normalized":"adams","lat":39.9861,"lon":-91.195},"17003":{"state":"IL","name":"Alexander County","normalized":"alexander","lat":37.1837,"lon":-89.3495},"17005":{"state":"IL","name":"Bond County","normalized":"bond","lat":38.8859,"lon":-89.4366},"17007":{"state":"IL","name":"Boone County","normalized":"boone","lat":42.319,"lon":-88.8243},"17009":{"state":"IL","name":"Brown County","normalized":"brown","lat":39.9621,"lon":-90.7503},"17011":{"state":"IL","name":"Bureau County","normalized":"bureau","lat":41.4013,"lon":-89.5284},"17013":{"state":"IL","name":"Calhoun County","normalized":"calhoun","lat":39.1643,"lon":-90.6663},"17015":{"state":"IL","name":"Carroll County","normalized":"carroll","lat":42.0709,"lon":-89.9242},"17017":{"state":"IL","name":"Cass County","normalized":"cass","lat":39.9692,"lon":-90.2457},"17019":{"state":"IL","name":"Champaign County","normalized":"champaign","lat":40.139,"lon":-88.197},"17021":{"state":"IL","name":"Christian County","normalized":"christian","lat":39.5455,"lon":-89.2796},"17023":{"state":"IL","name":"Clark County","normalized":"clark","lat":39.3323,"lon":-87.7917},"17025":{"state":"IL","name":"Clay County","normalized":"clay","lat":38.7468,"lon":-88.4823},"17027":{"state":"IL","name":"Clinton County","normalized":"clinton","lat":38.6063,"lon":-89.4262},"17029":{"state":"IL","name":"Coles County","normalized":"coles","lat":39.5137,"lon":-88.2208},"17031":{"state":"IL","name":"Cook County","normalized":"cook","lat":41.8943,"lon":-87.6455},"17033":{"state":"IL","name":"Crawford County","normalized":"crawford","lat":39.0028,"lon":-87.7606},"17035":{"state":"IL","name":"Cumberland County","normalized":"cumberland","lat":39.2731,"lon":-88.2406},"17037":{"state":"IL","name":"DeKalb County","normalized":"dekalb","lat":41.8946,"lon":-88.769},"17039":{"state":"IL","name":"De Witt County","normalized":"de witt","lat":40.1815,"lon":-88.9019},"17041":{"state":"IL","name":"Douglas County","normalized":"douglas","lat":39.7661,"lon":-88.2229},"17043":{"state":"IL","name":"DuPage County","normalized":"dupage","lat":41.8521,"lon":-88.086},"17045":{"state":"IL","name":"Edgar County","normalized":"edgar","lat":39.679,"lon":-87.7471},"17047":{"state":"IL","name":"Edwards County","normalized":"edwards","lat":38.4171,"lon":-88.0479},"17049":{"state":"IL","name":"Effingham County","normalized":"effingham","lat":39.0479,"lon":-88.5928},"17051":{"state":"IL","name":"Fayette County","normalized":"fayette","lat":39.0011,"lon":-89.0179},"17053":{"state":"IL","name":"Ford County","normalized":"ford","lat":40.5965,"lon":-88.2246},"17055":{"state":"IL","name":"Franklin County","normalized":"franklin","lat":37.9919,"lon":-88.9263},"17057":{"state":"IL","name":"Fulton County","normalized":"fulton","lat":40.4652,"lon":-90.2023},"17059":{"state":"IL","name":"Gallatin County","normalized":"gallatin","lat":37.7687,"lon":-88.228},"17061":{"state":"IL","name":"Greene County","normalized":"greene","lat":39.3554,"lon":-90.3877},"17063":{"state":"IL","name":"Grundy County","normalized":"grundy","lat":41.2924,"lon":-88.4011},"17065":{"state":"IL","name":"Hamilton County","normalized":"hamilton","lat":38.0852,"lon":-88.539},"17067":{"state":"IL","name":"Hancock County","normalized":"hancock","lat":40.4013,"lon":-91.1688},"17069":{"state":"IL","name":"Hardin County","normalized":"hardin","lat":37.5179,"lon":-88.2661},"17071":{"state":"IL","name":"Henderson County","normalized":"henderson","lat":40.8145,"lon":-90.9412},"17073":{"state":"IL","name":"Henry County","normalized":"henry","lat":41.35,"lon":-90.1308},"17075":{"state":"IL","name":"Iroquois County","normalized":"iroquois","lat":40.7489,"lon":-87.8336},"17077":{"state":"IL","name":"Jackson County","normalized":"jackson","lat":37.7861,"lon":-89.3812},"17079":{"state":"IL","name":"Jasper County","normalized":"jasper","lat":39.0049,"lon":-88.1507},"17081":{"state":"IL","name":"Jefferson County","normalized":"jefferson","lat":38.3008,"lon":-88.9242},"17083":{"state":"IL","name":"Jersey County","normalized":"jersey","lat":39.0802,"lon":-90.3614},"17085":{"state":"IL","name":"Jo Daviess County","normalized":"jo daviess","lat":42.3624,"lon":-90.2115},"17087":{"state":"IL","name":"Johnson County","normalized":"johnson","lat":37.4607,"lon":-88.8821},"17089":{"state":"IL","name":"Kane County","normalized":"kane","lat":41.9396,"lon":-88.428},"17091":{"state":"IL","name":"Kankakee County","normalized":"kankakee","lat":41.1395,"lon":-87.8611},"17093":{"state":"IL","name":"Kendall County","normalized":"kendall","lat":41.5881,"lon":-88.4306},"17095":{"state":"IL","name":"Knox County","normalized":"knox","lat":40.9309,"lon":-90.2138},"17097":{"state":"IL","name":"Lake County","normalized":"lake","lat":42.186,"lon":-87.8059},"17099":{"state":"IL","name":"LaSalle County","normalized":"lasalle","lat":41.3433,"lon":-88.8859},"17101":{"state":"IL","name":"Lawrence County","normalized":"lawrence","lat":38.719,"lon":-87.7302},"17103":{"state":"IL","name":"Lee County","normalized":"lee","lat":41.7474,"lon":-89.2994},"17105":{"state":"IL","name":"Livingston County","normalized":"livingston","lat":40.8944,"lon":-88.5529},"17107":{"state":"IL","name":"Logan County","normalized":"logan","lat":40.1293,"lon":-89.3653},"17109":{"state":"IL","name":"McDonough County","normalized":"mcdonough","lat":40.4558,"lon":-90.679},"17111":{"state":"IL","name":"McHenry County","normalized":"mchenry","lat":42.3243,"lon":-88.4522},"17113":{"state":"IL","name":"McLean County","normalized":"mclean","lat":40.4946,"lon":-88.8445},"17115":{"state":"IL","name":"Macon County","normalized":"macon","lat":39.8602,"lon":-88.9615},"17117":{"state":"IL","name":"Macoupin County","normalized":"macoupin","lat":39.2659,"lon":-89.9263},"17119":{"state":"IL","name":"Madison County","normalized":"madison","lat":38.8271,"lon":-89.9002},"17121":{"state":"IL","name":"Marion County","normalized":"marion","lat":38.6482,"lon":-88.9204},"17123":{"state":"IL","name":"Marshall County","normalized":"marshall","lat":41.0311,"lon":-89.3424},"17125":{"state":"IL","name":"Mason County","normalized":"mason","lat":40.237,"lon":-89.9136},"17127":{"state":"IL","name":"Massac County","normalized":"massac","lat":37.2161,"lon":-88.7057},"17129":{"state":"IL","name":"Menard County","normalized":"menard","lat":40.0226,"lon":-89.7941},"17131":{"state":"IL","name":"Mercer County","normalized":"mercer","lat":41.2056,"lon":-90.7418},"17133":{"state":"IL","name":"Monroe County","normalized":"monroe","lat":38.278,"lon":-90.1791},"17135":{"state":"IL","name":"Montgomery County","normalized":"montgomery","lat":39.2281,"lon":-89.4781},"17137":{"state":"IL","name":"Morgan County","normalized":"morgan","lat":39.7177,"lon":-90.205},"17139":{"state":"IL","name":"Moultrie County","normalized":"moultrie","lat":39.6369,"lon":-88.6257},"17141":{"state":"IL","name":"Ogle County","normalized":"ogle","lat":42.0419,"lon":-89.3202},"17143":{"state":"IL","name":"Peoria County","normalized":"peoria","lat":40.786,"lon":-89.767},"17145":{"state":"IL","name":"Perry County","normalized":"perry","lat":38.0844,"lon":-89.3685},"17147":{"state":"IL","name":"Piatt County","normalized":"piatt","lat":40.009,"lon":-88.5924},"17149":{"state":"IL","name":"Pike County","normalized":"pike","lat":39.6251,"lon":-90.889},"17151":{"state":"IL","name":"Pope County","normalized":"pope","lat":37.4172,"lon":-88.5424},"17153":{"state":"IL","name":"Pulaski County","normalized":"pulaski","lat":37.2156,"lon":-89.1278},"17155":{"state":"IL","name":"Putnam County","normalized":"putnam","lat":41.199,"lon":-89.2983},"17157":{"state":"IL","name":"Randolph County","normalized":"randolph","lat":38.0565,"lon":-89.8212},"17159":{"state":"IL","name":"Richland County","normalized":"richland","lat":38.7122,"lon":-88.0855},"17161":{"state":"IL","name":"Rock Island County","normalized":"rock island","lat":41.4684,"lon":-90.5721},"17163":{"state":"IL","name":"St. Clair County","normalized":"st. clair","lat":38.4702,"lon":-89.9285},"17165":{"state":"IL","name":"Saline County","normalized":"saline","lat":37.7515,"lon":-88.545},"17167":{"state":"IL","name":"Sangamon County","normalized":"sangamon","lat":39.7569,"lon":-89.6624},"17169":{"state":"IL","name":"Schuyler County","normalized":"schuyler","lat":40.1569,"lon":-90.6135},"17171":{"state":"IL","name":"Scott County","normalized":"scott","lat":39.637,"lon":-90.4778},"17173":{"state":"IL","name":"Shelby County","normalized":"shelby","lat":39.3849,"lon":-88.7989},"17175":{"state":"IL","name":"Stark County","normalized":"stark","lat":41.0969,"lon":-89.7974},"17177":{"state":"IL","name":"Stephenson County","normalized":"stephenson","lat":42.3497,"lon":-89.666},"17179":{"state":"IL","name":"Tazewell County","normalized":"tazewell","lat":40.5081,"lon":-89.5163},"17181":{"state":"IL","name":"Union County","normalized":"union","lat":37.4857,"lon":-89.2446},"17183":{"state":"IL","name":"Vermilion County","normalized":"vermilion","lat":40.1868,"lon":-87.7268},"17185":{"state":"IL","name":"Wabash County","normalized":"wabash","lat":38.4458,"lon":-87.8392},"17187":{"state":"IL","name":"Warren County","normalized":"warren","lat":40.8504,"lon":-90.6202},"17189":{"state":"IL","name":"Washington County","normalized":"washington","lat":38.3531,"lon":-89.4172},"17191":{"state":"IL","name":"Wayne County","normalized":"wayne","lat":38.4319,"lon":-88.4324},"17193":{"state":"IL","name":"White County","normalized":"white","lat":38.0873,"lon":-88.1786},"17195":{"state":"IL","name":"Whiteside County","normalized":"whiteside","lat":41.7507,"lon":-89.911},"17197":{"state":"IL","name":"Will County","normalized":"will","lat":41.4485,"lon":-87.9785},"17199":{"state":"IL","name":"Williamson County","normalized":"williamson","lat":37.7304,"lon":-88.93},"17201":{"state":"IL","name":"Winnebago County","normalized":"winnebago","lat":42.3374,"lon":-89.1612},"17203":{"state":"IL","name":"Woodford County","normalized":"woodford","lat":40.7898,"lon":-89.2106},"18001":{"state":"IN","name":"Adams County","normalized":"adams","lat":40.7457,"lon":-84.9361},"18003":{"state":"IN","name":"Allen County","normalized":"allen","lat":41.0919,"lon":-85.0718},"18005":{"state":"IN","name":"Bartholomew County","normalized":"bartholomew","lat":39.2058,"lon":-85.898},"18007":{"state":"IN","name":"Benton County","normalized":"benton","lat":40.6009,"lon":-87.3148},"18009":{"state":"IN","name":"Blackford County","normalized":"blackford","lat":40.4727,"lon":-85.3237},"18011":{"state":"IN","name":"Boone County","normalized":"boone","lat":40.0509,"lon":-86.469},"18013":{"state":"IN","name":"Brown County","normalized":"brown","lat":39.1951,"lon":-86.2301},"18015":{"state":"IN","name":"Carroll County","normalized":"carroll","lat":40.585,"lon":-86.5651},"18017":{"state":"IN","name":"Cass County","normalized":"cass","lat":40.7538,"lon":-86.3552},"18019":{"state":"IN","name":"Clark County","normalized":"clark","lat":38.4762,"lon":-85.7111},"18021":{"state":"IN","name":"Clay County","normalized":"clay","lat":39.3939,"lon":-87.1159},"18023":{"state":"IN","name":"Clinton County","normalized":"clinton","lat":40.3059,"lon":-86.4776},"18025":{"state":"IN","name":"Crawford County","normalized":"crawford","lat":38.2894,"lon":-86.4409},"18027":{"state":"IN","name":"Daviess County","normalized":"daviess","lat":38.6961,"lon":-87.0769},"18029":{"state":"IN","name":"Dearborn County","normalized":"dearborn","lat":39.1409,"lon":-84.9759},"18031":{"state":"IN","name":"Decatur County","normalized":"decatur","lat":39.306,"lon":-85.4998},"18033":{"state":"IN","name":"DeKalb County","normalized":"dekalb","lat":41.3968,"lon":-85.0027},"18035":{"state":"IN","name":"Delaware County","normalized":"delaware","lat":40.2275,"lon":-85.3993},"18037":{"state":"IN","name":"Dubois County","normalized":"dubois","lat":38.3733,"lon":-86.8734},"18039":{"state":"IN","name":"Elkhart County","normalized":"elkhart","lat":41.6007,"lon":-85.864},"18041":{"state":"IN","name":"Fayette County","normalized":"fayette","lat":39.6397,"lon":-85.185},"18043":{"state":"IN","name":"Floyd County","normalized":"floyd","lat":38.3181,"lon":-85.9118},"18045":{"state":"IN","name":"Fountain County","normalized":"fountain","lat":40.1212,"lon":-87.2349},"18047":{"state":"IN","name":"Franklin County","normalized":"franklin","lat":39.4098,"lon":-85.067},"18049":{"state":"IN","name":"Fulton County","normalized":"fulton","lat":41.0504,"lon":-86.265},"18051":{"state":"IN","name":"Gibson County","normalized":"gibson","lat":38.3174,"lon":-87.5805},"18053":{"state":"IN","name":"Grant County","normalized":"grant","lat":40.5158,"lon":-85.6549},"18055":{"state":"IN","name":"Greene County","normalized":"greene","lat":39.0471,"lon":-87.0048},"18057":{"state":"IN","name":"Hamilton County","normalized":"hamilton","lat":40.0535,"lon":-86.0217},"18059":{"state":"IN","name":"Hancock County","normalized":"hancock","lat":39.8225,"lon":-85.7732},"18061":{"state":"IN","name":"Harrison County","normalized":"harrison","lat":38.1865,"lon":-86.1038},"18063":{"state":"IN","name":"Hendricks County","normalized":"hendricks","lat":39.769,"lon":-86.5099},"18065":{"state":"IN","name":"Henry County","normalized":"henry","lat":39.9296,"lon":-85.3974},"18067":{"state":"IN","name":"Howard County","normalized":"howard","lat":40.4835,"lon":-86.1141},"18069":{"state":"IN","name":"Huntington County","normalized":"huntington","lat":40.8264,"lon":-85.4786},"18071":{"state":"IN","name":"Jackson County","normalized":"jackson","lat":38.912,"lon":-86.0425},"18073":{"state":"IN","name":"Jasper County","normalized":"jasper","lat":41.0177,"lon":-87.1188},"18075":{"state":"IN","name":"Jay County","normalized":"jay","lat":40.435,"lon":-85.0023},"18077":{"state":"IN","name":"Jefferson County","normalized":"jefferson","lat":38.7836,"lon":-85.4401},"18079":{"state":"IN","name":"Jennings County","normalized":"jennings","lat":38.9962,"lon":-85.6281},"18081":{"state":"IN","name":"Johnson County","normalized":"johnson","lat":39.4961,"lon":-86.0943},"18083":{"state":"IN","name":"Knox County","normalized":"knox","lat":38.6884,"lon":-87.4204},"18085":{"state":"IN","name":"Kosciusko County","normalized":"kosciusko","lat":41.2443,"lon":-85.8616},"18087":{"state":"IN","name":"LaGrange County","normalized":"lagrange","lat":41.6425,"lon":-85.4278},"18089":{"state":"IN","name":"Lake County","normalized":"lake","lat":41.4722,"lon":-87.3743},"18091":{"state":"IN","name":"LaPorte County","normalized":"laporte","lat":41.549,"lon":-86.7447},"18093":{"state":"IN","name":"Lawrence County","normalized":"lawrence","lat":38.8398,"lon":-86.4878},"18095":{"state":"IN","name":"Madison County","normalized":"madison","lat":40.1662,"lon":-85.7225},"18097":{"state":"IN","name":"Marion County","normalized":"marion","lat":39.783,"lon":-86.1358},"18099":{"state":"IN","name":"Marshall County","normalized":"marshall","lat":41.325,"lon":-86.269},"18101":{"state":"IN","name":"Martin County","normalized":"martin","lat":38.7053,"lon":-86.8018},"18103":{"state":"IN","name":"Miami County","normalized":"miami","lat":40.7729,"lon":-86.0443},"18105":{"state":"IN","name":"Monroe County","normalized":"monroe","lat":39.1607,"lon":-86.5233},"18107":{"state":"IN","name":"Montgomery County","normalized":"montgomery","lat":40.0403,"lon":-86.8927},"18109":{"state":"IN","name":"Morgan County","normalized":"morgan","lat":39.4826,"lon":-86.4475},"18111":{"state":"IN","name":"Newton County","normalized":"newton","lat":40.9624,"lon":-87.4022},"18113":{"state":"IN","name":"Noble County","normalized":"noble","lat":41.4047,"lon":-85.4173},"18115":{"state":"IN","name":"Ohio County","normalized":"ohio","lat":38.9405,"lon":-84.9643},"18117":{"state":"IN","name":"Orange County","normalized":"orange","lat":38.5474,"lon":-86.4893},"18119":{"state":"IN","name":"Owen County","normalized":"owen","lat":39.3173,"lon":-86.8388},"18121":{"state":"IN","name":"Parke County","normalized":"parke","lat":39.7743,"lon":-87.197},"18123":{"state":"IN","name":"Perry County","normalized":"perry","lat":38.0814,"lon":-86.6265},"18125":{"state":"IN","name":"Pike County","normalized":"pike","lat":38.398,"lon":-87.2325},"18127":{"state":"IN","name":"Porter County","normalized":"porter","lat":41.5099,"lon":-87.0713},"18129":{"state":"IN","name":"Posey County","normalized":"posey","lat":38.0276,"lon":-87.8687},"18131":{"state":"IN","name":"Pulaski County","normalized":"pulaski","lat":41.0453,"lon":-86.6925},"18133":{"state":"IN","name":"Putnam County","normalized":"putnam","lat":39.6655,"lon":-86.8534},"18135":{"state":"IN","name":"Randolph County","normalized":"randolph","lat":40.1641,"lon":-85.0058},"18137":{"state":"IN","name":"Ripley County","normalized":"ripley","lat":39.1002,"lon":-85.2605},"18139":{"state":"IN","name":"Rush County","normalized":"rush","lat":39.6224,"lon":-85.4665},"18141":{"state":"IN","name":"St. Joseph County","normalized":"st. joseph","lat":41.6177,"lon":-86.288},"18143":{"state":"IN","name":"Scott County","normalized":"scott","lat":38.6794,"lon":-85.7519},"18145":{"state":"IN","name":"Shelby County","normalized":"shelby","lat":39.5241,"lon":-85.7922},"18147":{"state":"IN","name":"Spencer County","normalized":"spencer","lat":38.0097,"lon":-87.0104},"18149":{"state":"IN","name":"Starke County","normalized":"starke","lat":41.2845,"lon":-86.6446},"18151":{"state":"IN","name":"Steuben County","normalized":"steuben","lat":41.6435,"lon":-85.0024},"18153":{"state":"IN","name":"Sullivan County","normalized":"sullivan","lat":39.0892,"lon":-87.4158},"18155":{"state":"IN","name":"Switzerland County","normalized":"switzerland","lat":38.8259,"lon":-85.0297},"18157":{"state":"IN","name":"Tippecanoe County","normalized":"tippecanoe","lat":40.3891,"lon":-86.8936},"18159":{"state":"IN","name":"Tipton County","normalized":"tipton","lat":40.3102,"lon":-86.0562},"18161":{"state":"IN","name":"Union County","normalized":"union","lat":39.6231,"lon":-84.9251},"18163":{"state":"IN","name":"Vanderburgh County","normalized":"vanderburgh","lat":38.0201,"lon":-87.5862},"18165":{"state":"IN","name":"Vermillion County","normalized":"vermillion","lat":39.854,"lon":-87.4621},"18167":{"state":"IN","name":"Vigo County","normalized":"vigo","lat":39.4309,"lon":-87.391},"18169":{"state":"IN","name":"Wabash County","normalized":"wabash","lat":40.8437,"lon":-85.7952},"18171":{"state":"IN","name":"Warren County","normalized":"warren","lat":40.3525,"lon":-87.3752},"18173":{"state":"IN","name":"Warrick County","normalized":"warrick","lat":38.0977,"lon":-87.272},"18175":{"state":"IN","name":"Washington County","normalized":"washington","lat":38.6006,"lon":-86.1048},"18177":{"state":"IN","name":"Wayne County","normalized":"wayne","lat":39.8631,"lon":-85.0067},"18179":{"state":"IN","name":"Wells County","normalized":"wells","lat":40.7355,"lon":-85.2133},"18181":{"state":"IN","name":"White County","normalized":"white","lat":40.751,"lon":-86.8643},"18183":{"state":"IN","name":"Whitley County","normalized":"whitley","lat":41.1364,"lon":-85.5019},"19001":{"state":"IA","name":"Adair County","normalized":"adair","lat":41.3285,"lon":-94.4782},"19003":{"state":"IA","name":"Adams County","normalized":"adams","lat":41.0217,"lon":-94.6969},"19005":{"state":"IA","name":"Allamakee County","normalized":"allamakee","lat":43.275,"lon":-91.3828},"19007":{"state":"IA","name":"Appanoose County","normalized":"appanoose","lat":40.7442,"lon":-92.8731},"19009":{"state":"IA","name":"Audubon County","normalized":"audubon","lat":41.6792,"lon":-94.9043},"19011":{"state":"IA","name":"Benton County","normalized":"benton","lat":42.0925,"lon":-92.0576},"19013":{"state":"IA","name":"Black Hawk County","normalized":"black hawk","lat":42.4711,"lon":-92.3076},"19015":{"state":"IA","name":"Boone County","normalized":"boone","lat":42.0386,"lon":-93.9386},"19017":{"state":"IA","name":"Bremer County","normalized":"bremer","lat":42.7809,"lon":-92.3274},"19019":{"state":"IA","name":"Buchanan County","normalized":"buchanan","lat":42.4703,"lon":-91.8387},"19021":{"state":"IA","name":"Buena Vista County","normalized":"buena vista","lat":42.7415,"lon":-95.1414},"19023":{"state":"IA","name":"Butler County","normalized":"butler","lat":42.7348,"lon":-92.7802},"19025":{"state":"IA","name":"Calhoun County","normalized":"calhoun","lat":42.3861,"lon":-94.6436},"19027":{"state":"IA","name":"Carroll County","normalized":"carroll","lat":42.0395,"lon":-94.8676},"19029":{"state":"IA","name":"Cass County","normalized":"cass","lat":41.3338,"lon":-94.9333},"19031":{"state":"IA","name":"Cedar County","normalized":"cedar","lat":41.7724,"lon":-91.1326},"19033":{"state":"IA","name":"Cerro Gordo County","normalized":"cerro gordo","lat":43.075,"lon":-93.251},"19035":{"state":"IA","name":"Cherokee County","normalized":"cherokee","lat":42.7427,"lon":-95.6333},"19037":{"state":"IA","name":"Chickasaw County","normalized":"chickasaw","lat":43.0597,"lon":-92.3172},"19039":{"state":"IA","name":"Clarke County","normalized":"clarke","lat":41.0297,"lon":-93.7853},"19041":{"state":"IA","name":"Clay County","normalized":"clay","lat":43.0812,"lon":-95.1499},"19043":{"state":"IA","name":"Clayton County","normalized":"clayton","lat":42.841,"lon":-91.3236},"19045":{"state":"IA","name":"Clinton County","normalized":"clinton","lat":41.8981,"lon":-90.5342},"19047":{"state":"IA","name":"Crawford County","normalized":"crawford","lat":42.0431,"lon":-95.3891},"19049":{"state":"IA","name":"Dallas County","normalized":"dallas","lat":41.6853,"lon":-94.0407},"19051":{"state":"IA","name":"Davis County","normalized":"davis","lat":40.7481,"lon":-92.4103},"19053":{"state":"IA","name":"Decatur County","normalized":"decatur","lat":40.7364,"lon":-93.7846},"19055":{"state":"IA","name":"Delaware County","normalized":"delaware","lat":42.473,"lon":-91.3668},"19057":{"state":"IA","name":"Des Moines County","normalized":"des moines","lat":40.9153,"lon":-91.1869},"19059":{"state":"IA","name":"Dickinson County","normalized":"dickinson","lat":43.3896,"lon":-95.1961},"19061":{"state":"IA","name":"Dubuque County","normalized":"dubuque","lat":42.4635,"lon":-90.8788},"19063":{"state":"IA","name":"Emmet County","normalized":"emmet","lat":43.378,"lon":-94.6694},"19065":{"state":"IA","name":"Fayette County","normalized":"fayette","lat":42.8641,"lon":-91.8404},"19067":{"state":"IA","name":"Floyd County","normalized":"floyd","lat":43.0527,"lon":-92.7874},"19069":{"state":"IA","name":"Franklin County","normalized":"franklin","lat":42.7365,"lon":-93.2714},"19071":{"state":"IA","name":"Fremont County","normalized":"fremont","lat":40.7426,"lon":-95.5992},"19073":{"state":"IA","name":"Greene County","normalized":"greene","lat":42.0425,"lon":-94.3887},"19075":{"state":"IA","name":"Grundy County","normalized":"grundy","lat":42.4033,"lon":-92.7902},"19077":{"state":"IA","name":"Guthrie County","normalized":"guthrie","lat":41.6836,"lon":-94.5013},"19079":{"state":"IA","name":"Hamilton County","normalized":"hamilton","lat":42.3908,"lon":-93.7091},"19081":{"state":"IA","name":"Hancock County","normalized":"hancock","lat":43.0754,"lon":-93.7437},"19083":{"state":"IA","name":"Hardin County","normalized":"hardin","lat":42.3902,"lon":-93.2417},"19085":{"state":"IA","name":"Harrison County","normalized":"harrison","lat":41.6886,"lon":-95.8271},"19087":{"state":"IA","name":"Henry County","normalized":"henry","lat":40.9848,"lon":-91.5473},"19089":{"state":"IA","name":"Howard County","normalized":"howard","lat":43.3653,"lon":-92.3219},"19091":{"state":"IA","name":"Humboldt County","normalized":"humboldt","lat":42.7822,"lon":-94.2028},"19093":{"state":"IA","name":"Ida County","normalized":"ida","lat":42.3919,"lon":-95.5074},"19095":{"state":"IA","name":"Iowa County","normalized":"iowa","lat":41.6839,"lon":-92.0591},"19097":{"state":"IA","name":"Jackson County","normalized":"jackson","lat":42.1642,"lon":-90.5746},"19099":{"state":"IA","name":"Jasper County","normalized":"jasper","lat":41.6856,"lon":-93.0541},"19101":{"state":"IA","name":"Jefferson County","normalized":"jefferson","lat":41.0064,"lon":-91.9666},"19103":{"state":"IA","name":"Johnson County","normalized":"johnson","lat":41.6707,"lon":-91.5905},"19105":{"state":"IA","name":"Jones County","normalized":"jones","lat":42.1251,"lon":-91.1169},"19107":{"state":"IA","name":"Keokuk County","normalized":"keokuk","lat":41.3312,"lon":-92.1677},"19109":{"state":"IA","name":"Kossuth County","normalized":"kossuth","lat":43.2124,"lon":-94.214},"19111":{"state":"IA","name":"Lee County","normalized":"lee","lat":40.6476,"lon":-91.4772},"19113":{"state":"IA","name":"Linn County","normalized":"linn","lat":42.078,"lon":-91.5977},"19115":{"state":"IA","name":"Louisa County","normalized":"louisa","lat":41.2182,"lon":-91.257},"19117":{"state":"IA","name":"Lucas County","normalized":"lucas","lat":41.0333,"lon":-93.3315},"19119":{"state":"IA","name":"Lyon County","normalized":"lyon","lat":43.3836,"lon":-96.2072},"19121":{"state":"IA","name":"Madison County","normalized":"madison","lat":41.3306,"lon":-94.0152},"19123":{"state":"IA","name":"Mahaska County","normalized":"mahaska","lat":41.3308,"lon":-92.6364},"19125":{"state":"IA","name":"Marion County","normalized":"marion","lat":41.3314,"lon":-93.0939},"19127":{"state":"IA","name":"Marshall County","normalized":"marshall","lat":42.0417,"lon":-92.9814},"19129":{"state":"IA","name":"Mills County","normalized":"mills","lat":41.0337,"lon":-95.6191},"19131":{"state":"IA","name":"Mitchell County","normalized":"mitchell","lat":43.3486,"lon":-92.7845},"19133":{"state":"IA","name":"Monona County","normalized":"monona","lat":42.0494,"lon":-95.9566},"19135":{"state":"IA","name":"Monroe County","normalized":"monroe","lat":41.0288,"lon":-92.8696},"19137":{"state":"IA","name":"Montgomery County","normalized":"montgomery","lat":41.0217,"lon":-95.1578},"19139":{"state":"IA","name":"Muscatine County","normalized":"muscatine","lat":41.4838,"lon":-91.1187},"19141":{"state":"IA","name":"O'Brien County","normalized":"o'brien","lat":43.0837,"lon":-95.6256},"19143":{"state":"IA","name":"Osceola County","normalized":"osceola","lat":43.3785,"lon":-95.6338},"19145":{"state":"IA","name":"Page County","normalized":"page","lat":40.7391,"lon":-95.1443},"19147":{"state":"IA","name":"Palo Alto County","normalized":"palo alto","lat":43.0753,"lon":-94.6691},"19149":{"state":"IA","name":"Plymouth County","normalized":"plymouth","lat":42.7376,"lon":-96.2159},"19151":{"state":"IA","name":"Pocahontas County","normalized":"pocahontas","lat":42.734,"lon":-94.6783},"19153":{"state":"IA","name":"Polk County","normalized":"polk","lat":41.6848,"lon":-93.569},"19155":{"state":"IA","name":"Pottawattamie County","normalized":"pottawattamie","lat":41.3402,"lon":-95.5449},"19157":{"state":"IA","name":"Poweshiek County","normalized":"poweshiek","lat":41.6846,"lon":-92.5229},"19159":{"state":"IA","name":"Ringgold County","normalized":"ringgold","lat":40.7353,"lon":-94.2443},"19161":{"state":"IA","name":"Sac County","normalized":"sac","lat":42.3875,"lon":-95.1052},"19163":{"state":"IA","name":"Scott County","normalized":"scott","lat":41.6421,"lon":-90.6223},"19165":{"state":"IA","name":"Shelby County","normalized":"shelby","lat":41.679,"lon":-95.3089},"19167":{"state":"IA","name":"Sioux County","normalized":"sioux","lat":43.0826,"lon":-96.178},"19169":{"state":"IA","name":"Story County","normalized":"story","lat":42.0375,"lon":-93.4661},"19171":{"state":"IA","name":"Tama County","normalized":"tama","lat":42.0748,"lon":-92.5294},"19173":{"state":"IA","name":"Taylor County","normalized":"taylor","lat":40.7379,"lon":-94.6971},"19175":{"state":"IA","name":"Union County","normalized":"union","lat":41.0286,"lon":-94.2451},"19177":{"state":"IA","name":"Van Buren County","normalized":"van buren","lat":40.7541,"lon":-91.9529},"19179":{"state":"IA","name":"Wapello County","normalized":"wapello","lat":41.0313,"lon":-92.4095},"19181":{"state":"IA","name":"Warren County","normalized":"warren","lat":41.3324,"lon":-93.5688},"19183":{"state":"IA","name":"Washington County","normalized":"washington","lat":41.3294,"lon":-91.7251},"19185":{"state":"IA","name":"Wayne County","normalized":"wayne","lat":40.74,"lon":-93.3326},"19187":{"state":"IA","name":"Webster County","normalized":"webster","lat":42.4336,"lon":-94.1758},"19189":{"state":"IA","name":"Winnebago County","normalized":"winnebago","lat":43.3781,"lon":-93.7435},"19191":{"state":"IA","name":"Winneshiek County","normalized":"winneshiek","lat":43.293,"lon":-91.8508},"19193":{"state":"IA","name":"Woodbury County","normalized":"woodbury","lat":42.3932,"lon":-96.0533},"19195":{"state":"IA","name":"Worth County","normalized":"worth","lat":43.3735,"lon":-93.2485},"19197":{"state":"IA","name":"Wright County","normalized":"wright","lat":42.733,"lon":-93.7347},"20001":{"state":"KS","name":"Allen County","normalized":"allen","lat":37.8842,"lon":-95.3009},"20003":{"state":"KS","name":"Anderson County","normalized":"anderson","lat":38.2151,"lon":-95.292},"20005":{"state":"KS","name":"Atchison County","normalized":"atchison","lat":39.5325,"lon":-95.3134},"20007":{"state":"KS","name":"Barber County","normalized":"barber","lat":37.2229,"lon":-98.6851},"20009":{"state":"KS","name":"Barton County","normalized":"barton","lat":38.4812,"lon":-98.7678},"20011":{"state":"KS","name":"Bourbon County","normalized":"bourbon","lat":37.8561,"lon":-94.8509},"20013":{"state":"KS","name":"Brown County","normalized":"brown","lat":39.8259,"lon":-95.5699},"20015":{"state":"KS","name":"Butler County","normalized":"butler","lat":37.7736,"lon":-96.8388},"20017":{"state":"KS","name":"Chase County","normalized":"chase","lat":38.2995,"lon":-96.594},"20019":{"state":"KS","name":"Chautauqua County","normalized":"chautauqua","lat":37.1543,"lon":-96.2454},"20021":{"state":"KS","name":"Cherokee County","normalized":"cherokee","lat":37.1694,"lon":-94.8457},"20023":{"state":"KS","name":"Cheyenne County","normalized":"cheyenne","lat":39.7899,"lon":-101.7273},"20025":{"state":"KS","name":"Clark County","normalized":"clark","lat":37.2338,"lon":-99.8139},"20027":{"state":"KS","name":"Clay County","normalized":"clay","lat":39.345,"lon":-97.1689},"20029":{"state":"KS","name":"Cloud County","normalized":"cloud","lat":39.4873,"lon":-97.6414},"20031":{"state":"KS","name":"Coffey County","normalized":"coffey","lat":38.2364,"lon":-95.7291},"20033":{"state":"KS","name":"Comanche County","normalized":"comanche","lat":37.1814,"lon":-99.2513},"20035":{"state":"KS","name":"Cowley County","normalized":"cowley","lat":37.2345,"lon":-96.8372},"20037":{"state":"KS","name":"Crawford County","normalized":"crawford","lat":37.5058,"lon":-94.8539},"20039":{"state":"KS","name":"Decatur County","normalized":"decatur","lat":39.7835,"lon":-100.4597},"20041":{"state":"KS","name":"Dickinson County","normalized":"dickinson","lat":38.8677,"lon":-97.1579},"20043":{"state":"KS","name":"Doniphan County","normalized":"doniphan","lat":39.7885,"lon":-95.1472},"20045":{"state":"KS","name":"Douglas County","normalized":"douglas","lat":38.8964,"lon":-95.2909},"20047":{"state":"KS","name":"Edwards County","normalized":"edwards","lat":37.8836,"lon":-99.3047},"20049":{"state":"KS","name":"Elk County","normalized":"elk","lat":37.456,"lon":-96.2446},"20051":{"state":"KS","name":"Ellis County","normalized":"ellis","lat":38.9146,"lon":-99.3173},"20053":{"state":"KS","name":"Ellsworth County","normalized":"ellsworth","lat":38.7008,"lon":-98.2054},"20055":{"state":"KS","name":"Finney County","normalized":"finney","lat":38.0498,"lon":-100.74},"20057":{"state":"KS","name":"Ford County","normalized":"ford","lat":37.6884,"lon":-99.8847},"20059":{"state":"KS","name":"Franklin County","normalized":"franklin","lat":38.558,"lon":-95.279},"20061":{"state":"KS","name":"Geary County","normalized":"geary","lat":39.0021,"lon":-96.7681},"20063":{"state":"KS","name":"Gove County","normalized":"gove","lat":38.9172,"lon":-100.4874},"20065":{"state":"KS","name":"Graham County","normalized":"graham","lat":39.355,"lon":-99.8799},"20067":{"state":"KS","name":"Grant County","normalized":"grant","lat":37.5475,"lon":-101.2994},"20069":{"state":"KS","name":"Gray County","normalized":"gray","lat":37.7445,"lon":-100.4517},"20071":{"state":"KS","name":"Greeley County","normalized":"greeley","lat":38.4804,"lon":-101.806},"20073":{"state":"KS","name":"Greenwood County","normalized":"greenwood","lat":37.8793,"lon":-96.2417},"20075":{"state":"KS","name":"Hamilton County","normalized":"hamilton","lat":37.9952,"lon":-101.7937},"20077":{"state":"KS","name":"Harper County","normalized":"harper","lat":37.1882,"lon":-98.0666},"20079":{"state":"KS","name":"Harvey County","normalized":"harvey","lat":38.0501,"lon":-97.4367},"20081":{"state":"KS","name":"Haskell County","normalized":"haskell","lat":37.555,"lon":-100.88},"20083":{"state":"KS","name":"Hodgeman County","normalized":"hodgeman","lat":38.0875,"lon":-99.8984},"20085":{"state":"KS","name":"Jackson County","normalized":"jackson","lat":39.4111,"lon":-95.7945},"20087":{"state":"KS","name":"Jefferson County","normalized":"jefferson","lat":39.2396,"lon":-95.3753},"20089":{"state":"KS","name":"Jewell County","normalized":"jewell","lat":39.777,"lon":-98.2226},"20091":{"state":"KS","name":"Johnson County","normalized":"johnson","lat":38.8839,"lon":-94.8223},"20093":{"state":"KS","name":"Kearny County","normalized":"kearny","lat":37.9945,"lon":-101.3081},"20095":{"state":"KS","name":"Kingman County","normalized":"kingman","lat":37.553,"lon":-98.1445},"20097":{"state":"KS","name":"Kiowa County","normalized":"kiowa","lat":37.5612,"lon":-99.2865},"20099":{"state":"KS","name":"Labette County","normalized":"labette","lat":37.1915,"lon":-95.2975},"20101":{"state":"KS","name":"Lane County","normalized":"lane","lat":38.4813,"lon":-100.4662},"20103":{"state":"KS","name":"Leavenworth County","normalized":"leavenworth","lat":39.1895,"lon":-95.039},"20105":{"state":"KS","name":"Lincoln County","normalized":"lincoln","lat":39.0473,"lon":-98.2143},"20107":{"state":"KS","name":"Linn County","normalized":"linn","lat":38.2165,"lon":-94.8449},"20109":{"state":"KS","name":"Logan County","normalized":"logan","lat":38.9133,"lon":-101.1574},"20111":{"state":"KS","name":"Lyon County","normalized":"lyon","lat":38.4554,"lon":-96.1616},"20113":{"state":"KS","name":"McPherson County","normalized":"mcpherson","lat":38.3958,"lon":-97.6475},"20115":{"state":"KS","name":"Marion County","normalized":"marion","lat":38.3596,"lon":-97.1028},"20117":{"state":"KS","name":"Marshall County","normalized":"marshall","lat":39.7827,"lon":-96.5212},"20119":{"state":"KS","name":"Meade County","normalized":"meade","lat":37.2439,"lon":-100.3601},"20121":{"state":"KS","name":"Miami County","normalized":"miami","lat":38.5668,"lon":-94.833},"20123":{"state":"KS","name":"Mitchell County","normalized":"mitchell","lat":39.393,"lon":-98.2074},"20125":{"state":"KS","name":"Montgomery County","normalized":"montgomery","lat":37.1895,"lon":-95.7424},"20127":{"state":"KS","name":"Morris County","normalized":"morris","lat":38.6882,"lon":-96.6514},"20129":{"state":"KS","name":"Morton County","normalized":"morton","lat":37.1852,"lon":-101.8095},"20131":{"state":"KS","name":"Nemaha County","normalized":"nemaha","lat":39.791,"lon":-96.0054},"20133":{"state":"KS","name":"Neosho County","normalized":"neosho","lat":37.5643,"lon":-95.3157},"20135":{"state":"KS","name":"Ness County","normalized":"ness","lat":38.4804,"lon":-99.9087},"20137":{"state":"KS","name":"Norton County","normalized":"norton","lat":39.7839,"lon":-99.8992},"20139":{"state":"KS","name":"Osage County","normalized":"osage","lat":38.6502,"lon":-95.7083},"20141":{"state":"KS","name":"Osborne County","normalized":"osborne","lat":39.3483,"lon":-98.7679},"20143":{"state":"KS","name":"Ottawa County","normalized":"ottawa","lat":39.138,"lon":-97.6548},"20145":{"state":"KS","name":"Pawnee County","normalized":"pawnee","lat":38.1815,"lon":-99.2348},"20147":{"state":"KS","name":"Phillips County","normalized":"phillips","lat":39.7845,"lon":-99.3422},"20149":{"state":"KS","name":"Pottawatomie County","normalized":"pottawatomie","lat":39.3822,"lon":-96.3371},"20151":{"state":"KS","name":"Pratt County","normalized":"pratt","lat":37.6476,"lon":-98.7401},"20153":{"state":"KS","name":"Rawlins County","normalized":"rawlins","lat":39.7862,"lon":-101.0767},"20155":{"state":"KS","name":"Reno County","normalized":"reno","lat":37.9482,"lon":-98.0783},"20157":{"state":"KS","name":"Republic County","normalized":"republic","lat":39.8289,"lon":-97.6509},"20159":{"state":"KS","name":"Rice County","normalized":"rice","lat":38.3472,"lon":-98.2014},"20161":{"state":"KS","name":"Riley County","normalized":"riley","lat":39.2912,"lon":-96.7275},"20163":{"state":"KS","name":"Rooks County","normalized":"rooks","lat":39.346,"lon":-99.3245},"20165":{"state":"KS","name":"Rush County","normalized":"rush","lat":38.5236,"lon":-99.3092},"20167":{"state":"KS","name":"Russell County","normalized":"russell","lat":38.916,"lon":-98.7709},"20169":{"state":"KS","name":"Saline County","normalized":"saline","lat":38.7918,"lon":-97.6515},"20171":{"state":"KS","name":"Scott County","normalized":"scott","lat":38.4819,"lon":-100.9064},"20173":{"state":"KS","name":"Sedgwick County","normalized":"sedgwick","lat":37.681,"lon":-97.4611},"20175":{"state":"KS","name":"Seward County","normalized":"seward","lat":37.181,"lon":-100.8553},"20177":{"state":"KS","name":"Shawnee County","normalized":"shawnee","lat":39.0418,"lon":-95.7557},"20179":{"state":"KS","name":"Sheridan County","normalized":"sheridan","lat":39.3505,"lon":-100.4412},"20181":{"state":"KS","name":"Sherman County","normalized":"sherman","lat":39.3514,"lon":-101.7199},"20183":{"state":"KS","name":"Smith County","normalized":"smith","lat":39.7847,"lon":-98.7854},"20185":{"state":"KS","name":"Stafford County","normalized":"stafford","lat":38.0356,"lon":-98.7199},"20187":{"state":"KS","name":"Stanton County","normalized":"stanton","lat":37.5659,"lon":-101.7894},"20189":{"state":"KS","name":"Stevens County","normalized":"stevens","lat":37.2017,"lon":-101.3173},"20191":{"state":"KS","name":"Sumner County","normalized":"sumner","lat":37.2367,"lon":-97.4934},"20193":{"state":"KS","name":"Thomas County","normalized":"thomas","lat":39.3577,"lon":-101.0834},"20195":{"state":"KS","name":"Trego County","normalized":"trego","lat":38.9213,"lon":-99.8654},"20197":{"state":"KS","name":"Wabaunsee County","normalized":"wabaunsee","lat":38.9552,"lon":-96.2013},"20199":{"state":"KS","name":"Wallace County","normalized":"wallace","lat":38.9266,"lon":-101.7711},"20201":{"state":"KS","name":"Washington County","normalized":"washington","lat":39.7767,"lon":-97.0956},"20203":{"state":"KS","name":"Wichita County","normalized":"wichita","lat":38.4819,"lon":-101.3474},"20205":{"state":"KS","name":"Wilson County","normalized":"wilson","lat":37.5585,"lon":-95.7452},"20207":{"state":"KS","name":"Woodson County","normalized":"woodson","lat":37.8882,"lon":-95.7585},"20209":{"state":"KS","name":"Wyandotte County","normalized":"wyandotte","lat":39.1154,"lon":-94.7631},"21001":{"state":"KY","name":"Adair County","normalized":"adair","lat":37.1056,"lon":-85.2814},"21003":{"state":"KY","name":"Allen County","normalized":"allen","lat":36.7508,"lon":-86.1925},"21005":{"state":"KY","name":"Anderson County","normalized":"anderson","lat":38.0054,"lon":-84.9864},"21007":{"state":"KY","name":"Ballard County","normalized":"ballard","lat":37.0513,"lon":-89.0104},"21009":{"state":"KY","name":"Barren County","normalized":"barren","lat":36.9628,"lon":-85.9321},"21011":{"state":"KY","name":"Bath County","normalized":"bath","lat":38.1522,"lon":-83.7376},"21013":{"state":"KY","name":"Bell County","normalized":"bell","lat":36.7289,"lon":-83.6807},"21015":{"state":"KY","name":"Boone County","normalized":"boone","lat":38.9589,"lon":-84.7364},"21017":{"state":"KY","name":"Bourbon County","normalized":"bourbon","lat":38.2026,"lon":-84.2099},"21019":{"state":"KY","name":"Boyd County","normalized":"boyd","lat":38.36,"lon":-82.6814},